restaurant_name,address,phone_number,website_url,happy_hour_times,regular_hours,rating,review_count,price_level,source,freshness_date,latitude,longitude,cheapest_drink,cheapest_drink_price,cheapest_food,cheapest_food_price,menu_summary
Rudford's Restaurant,"2900 El Cajon Blvd, San Diego, CA 92104, USA",(619) 282-8423,http://www.rudfords.com/,,Monday: Open 24 hours | Tuesday: Open 24 hours | Wednesday: Open 24 hours | Thursday: Open 24 hours | Friday: Open 24 hours | Saturday: Open 24 hours | Sunday: Open 24 hours,4.4,4724,PRICE_LEVEL_INEXPENSIVE,Google Places API,2026-04-21,32.7556258,-117.13123399999999,,,,,
The Rabbit Hole,"3377 Adams Ave, San Diego, CA 92116, USA",(619) 255-4653,http://rabbitholesd.com/,,Monday: 12:00 – 11:00 PM | Tuesday: 12:00 – 11:00 PM | Wednesday: 12:00 – 11:00 PM | Thursday: 12:00 – 11:00 PM | Friday: 12:00 PM – 1:00 AM | Saturday: 10:00 AM – 1:00 AM | Sunday: 10:00 AM – 11:00 PM,4.3,1377,PRICE_LEVEL_MODERATE,Google Places API,2026-04-21,32.7631057,-117.1210771,,,,,
The Ould Sod,"3373 Adams Ave, San Diego, CA 92116, USA",(619) 284-6594,http://www.theouldsod.com/,Monday: 3:00 – 6:00 PM | Tuesday: 3:00 – 6:00 PM | Wednesday: 3:00 – 6:00 PM | Thursday: 3:00 – 6:00 PM | Friday: 3:00 – 6:00 PM | Saturday: 10:00 AM – 4:00 PM | Sunday: 10:00 AM – 4:00 PM,Monday: 2:00 PM – 2:00 AM | Tuesday: 2:00 PM – 2:00 AM | Wednesday: 2:00 PM – 2:00 AM | Thursday: 2:00 PM – 2:00 AM | Friday: 2:00 PM – 2:00 AM | Saturday: 10:00 AM – 2:00 AM | Sunday: 10:00 AM – 2:00 AM,4.6,666,PRICE_LEVEL_INEXPENSIVE,Google Places API (Happy Hours),2026-04-21,32.763031,-117.121231,,,,,
The Vibe,"3250 Adams Ave Ste 101, San Diego, CA 92116, USA",(619) 901-2281,https://thevibeco.com/,,Monday: 8:00 AM – 2:00 PM | Tuesday: 8:00 AM – 2:00 PM | Wednesday: 8:00 AM – 2:00 PM | Thursday: 8:00 AM – 2:00 PM | Friday: 8:00 AM – 2:00 PM | Saturday: 8:00 AM – 3:00 PM | Sunday: 8:00 AM – 3:00 PM,4.4,381,PRICE_LEVEL_MODERATE,Google Places API,2026-04-21,32.763660699999996,-117.1236181,,,,,
Rolberto's Taco Shop,"3462 Adams Ave, San Diego, CA 92116, USA",(619) 563-0438,https://www.orderrolbertos.com/,,Monday: 6:00 AM – 3:00 AM | Tuesday: 6:00 AM – 3:00 AM | Wednesday: 6:00 AM – 3:00 AM | Thursday: 6:00 AM – 3:00 AM | Friday: 6:00 AM – 3:00 AM | Saturday: 6:00 AM – 3:00 AM | Sunday: 6:00 AM – 3:00 AM,4.3,720,PRICE_LEVEL_INEXPENSIVE,Google Places API,2026-04-21,32.7635954,-117.1186605,,,,,
Madi,"3737 Adams Ave, San Diego, CA 92116, USA",(619) 915-5522,http://brunchlikemadi.com/,,Monday: 8:30 AM – 2:00 PM | Tuesday: 8:30 AM – 2:00 PM | Wednesday: 8:30 AM – 2:00 PM | Thursday: 8:30 AM – 2:00 PM | Friday: 8:00 AM – 2:00 PM | Saturday: 8:00 AM – 2:00 PM | Sunday: 8:00 AM – 2:00 PM,4.8,2592,PRICE_LEVEL_MODERATE,Google Places API,2026-04-21,32.7631116,-117.11245740000001,,,,,
Trattoria da Sofia,"4055 Adams Ave, San Diego, CA 92116, USA",(619) 228-9094,https://trattoriadasofia.com/,Monday: 4:00 PM - 5:00 PM | Tuesday: 4:00 PM - 5:00 PM | Wednesday: 4:00 PM - 5:00 PM | Thursday: 4:00 PM - 5:00 PM | Friday: 4:00 PM - 5:00 PM | Saturday: 4:00 PM - 5:00 PM | Sunday: 4:00 PM - 5:00 PM,Monday: 4:00 – 9:00 PM | Tuesday: 4:00 – 9:00 PM | Wednesday: 4:00 – 9:00 PM | Thursday: 4:00 – 9:00 PM | Friday: 4:00 – 10:00 PM | Saturday: 4:00 – 10:00 PM | Sunday: 4:00 – 9:00 PM,4.6,252,,"Website (AI parsed, high confidence)",2026-04-21,32.7630625,-117.1081469,,,,,
Et Voilà! French Bistro,"3015 Adams Ave, San Diego, CA 92116, USA",(619) 209-7759,http://etvoilabistro.com/,Monday: Closed | Tuesday: 4:30 – 7:00 PM | Wednesday: 4:30 – 7:00 PM | Thursday: 4:30 – 7:00 PM | Friday: 4:30 – 6:00 PM | Saturday: 4:30 – 6:00 PM | Sunday: 4:30 – 7:00 PM,Monday: Closed | Tuesday: 4:30 – 9:00 PM | Wednesday: 4:30 – 9:00 PM | Thursday: 4:30 – 9:00 PM | Friday: 4:30 – 9:30 PM | Saturday: 4:30 – 9:30 PM | Sunday: 4:30 – 8:00 PM,4.7,811,PRICE_LEVEL_MODERATE,Google Places API (Happy Hours),2026-04-21,32.76275,-117.12986670000001,,,,,
Blind Lady Ale House,"3416 Adams Ave, San Diego, CA 92116, USA",(619) 255-2491,http://www.blindladyalehouse.com/,,Monday: 5:00 – 11:00 PM | Tuesday: Closed | Wednesday: 5:00 – 11:00 PM | Thursday: 5:00 – 11:00 PM | Friday: 3:00 PM – 12:00 AM | Saturday: 12:00 PM – 12:00 AM | Sunday: 12:00 – 11:00 PM,4.7,1464,PRICE_LEVEL_MODERATE,Google Places API,2026-04-21,32.7634973,-117.1202861,,,,,
Vallarta Taco Shop,"4125 El Cajon Blvd, San Diego, CA 92105, USA",(619) 804-9822,,,Monday: Closed | Tuesday: 12:00 PM – 2:00 AM | Wednesday: 12:00 PM – 2:00 AM | Thursday: 12:00 PM – 2:00 AM | Friday: 12:00 PM – 2:00 AM | Saturday: 12:00 PM – 2:00 AM | Sunday: 12:00 PM – 2:00 AM,4,221,PRICE_LEVEL_INEXPENSIVE,Google Places API,2026-04-21,32.754922,-117.10652749999998,,,,,
The Hangout Restaurant and Bar,"2736 Adams Ave, San Diego, CA 92116, USA",(619) 640-2121,http://www.thehangoutrestaurantandbar.com/,Monday: Closed | Tuesday: Closed | Wednesday: Closed | Thursday: 3:00 PM - 6:00 PM | Friday: 3:00 PM - 6:00 PM | Saturday: 3:00 PM - 6:00 PM | Sunday: 3:00 PM - 6:00 PM,Monday: 8:00 AM – 3:00 PM | Tuesday: 8:00 AM – 3:00 PM | Wednesday: 8:00 AM – 3:00 PM | Thursday: 8:00 AM – 10:00 PM | Friday: 8:00 AM – 10:00 PM | Saturday: 8:00 AM – 10:00 PM | Sunday: 8:00 AM – 10:00 PM,4.7,49,,"Website (AI parsed, high confidence)",2026-04-21,32.7632105,-117.134357,,,,,
Bosforo,"3201 Adams Ave, San Diego, CA 92116, USA",(619) 634-9646,https://bosforosd.com/,,Monday: Closed | Tuesday: 5:00 – 9:30 PM | Wednesday: 5:00 – 9:30 PM | Thursday: 5:00 – 9:30 PM | Friday: 5:00 – 10:00 PM | Saturday: 5:00 – 10:00 PM | Sunday: 5:00 – 9:00 PM,4.6,364,,Google Places API,2026-04-21,32.7631797,-117.1247748,,,,,
Aiberto's Taco Shop,"3894 41st St, San Diego, CA 92105, USA",(619) 640-6810,,,Monday: Open 24 hours | Tuesday: Open 24 hours | Wednesday: Open 24 hours | Thursday: Open 24 hours | Friday: Open 24 hours | Saturday: Open 24 hours | Sunday: Open 24 hours,3.9,481,PRICE_LEVEL_INEXPENSIVE,Google Places API,2026-04-21,32.7494632,-117.10719499999999,,,,,
Bleu Bohème,"4090 Adams Ave, San Diego, CA 92116, USA",(619) 255-4167,http://www.bleuboheme.com/,,Monday: Closed | Tuesday: 5:00 – 8:00 PM | Wednesday: 5:00 – 8:00 PM | Thursday: 5:00 – 8:00 PM | Friday: 5:00 – 9:00 PM | Saturday: 5:00 – 9:00 PM | Sunday: Closed,4.5,655,PRICE_LEVEL_MODERATE,Google Places API,2026-04-21,32.7634548,-117.1075274,,,,,
Filiberto's Mexican Food,"3446 University Ave, San Diego, CA 92105, USA",(619) 640-0385,https://filibertosmexicanfoodgo.twupro.com/,,Monday: Open 24 hours | Tuesday: Open 24 hours | Wednesday: Open 24 hours | Thursday: Open 24 hours | Friday: Open 24 hours | Saturday: Open 24 hours | Sunday: Open 24 hours,3.9,1269,PRICE_LEVEL_INEXPENSIVE,Google Places API,2026-04-21,32.7499519,-117.11949840000001,,,,,
Dos Palmas Cafe - Normal Heights,"3562 Adams Ave, San Diego, CA 92116, USA",(619) 496-4343,https://www.dospalmascafe.com/,,Monday: 7:00 AM – 2:00 PM | Tuesday: 7:00 AM – 2:00 PM | Wednesday: 7:00 AM – 2:00 PM | Thursday: 7:00 AM – 2:00 PM | Friday: 7:00 AM – 2:00 PM | Saturday: 7:00 AM – 2:00 PM | Sunday: 7:00 AM – 2:00 PM,4.9,590,PRICE_LEVEL_INEXPENSIVE,Google Places API,2026-04-21,32.7635282,-117.11595919999999,,,,,
KGP Pizza & Grill,"Cherokee Ave, San Diego, CA 92104, USA",(619) 282-2221,,,Monday: 12:00 AM – 9:00 PM | Tuesday: 11:00 PM – 12:00 AM | Wednesday: 12:00 AM – 9:00 PM | Thursday: 11:00 AM – 9:00 PM | Friday: 11:00 AM – 9:00 PM | Saturday: 11:00 AM – 9:00 PM | Sunday: 11:00 PM – 12:00 AM,4,5,,Google Places API,2026-04-21,32.755595299999996,-117.11488449999997,,,,,
Denny's Restaurant,"2445 El Cajon Blvd, San Diego, CA 92104, USA",(619) 298-7046,https://locations.dennys.com/CA/SAN-DIEGO/246265?utm_source=G&utm_medium=organic&utm_campaign=DAC,,Monday: Open 24 hours | Tuesday: Open 24 hours | Wednesday: Open 24 hours | Thursday: Open 24 hours | Friday: Open 24 hours | Saturday: Open 24 hours | Sunday: Open 24 hours,4.5,4320,PRICE_LEVEL_INEXPENSIVE,Google Places API,2026-04-21,32.7550417,-117.13784649999998,,,,,
Wormwood,"4677 30th St, San Diego, CA 92116, USA",(619) 915-6706,http://www.wormwoodsd.com/,,"Monday: Closed | Tuesday: Closed | Wednesday: 5:00 – 9:30 PM | Thursday: 5:00 – 9:30 PM | Friday: 5:00 – 10:00 PM | Saturday: 5:00 – 10:00 PM | Sunday: 10:00 AM – 2:00 PM, 5:00 – 9:30 PM",4.5,345,,Google Places API,2026-04-21,32.7624737,-117.1299911,,,,,
DAO Fu,"3332 Adams Ave, San Diego, CA 92116, USA",(619) 281-6888,https://daofu.has.restaurant/,,"Monday: Closed | Tuesday: 11:00 AM – 2:00 PM, 5:00 – 8:30 PM | Wednesday: 11:00 AM – 2:00 PM, 5:00 – 8:30 PM | Thursday: 11:00 AM – 2:00 PM, 5:00 – 8:30 PM | Friday: 11:00 AM – 2:00 PM, 5:00 – 9:00 PM | Saturday: 11:00 AM – 2:00 PM, 5:00 – 9:00 PM | Sunday: 11:00 AM – 2:00 PM, 5:00 – 8:30 PM",4.7,565,PRICE_LEVEL_INEXPENSIVE,Google Places API,2026-04-21,32.763531799999996,-117.12206759999998,,,,,
Antique Row Cafe,"3002 Adams Ave, San Diego, CA 92116, USA",(619) 282-9750,https://antiquerowcafesd.com/,,Monday: 7:00 AM – 2:00 PM | Tuesday: 7:00 AM – 2:00 PM | Wednesday: 7:00 AM – 2:00 PM | Thursday: 7:00 AM – 2:00 PM | Friday: 7:00 AM – 2:00 PM | Saturday: 7:00 AM – 2:00 PM | Sunday: 7:00 AM – 2:00 PM,4.6,1094,PRICE_LEVEL_MODERATE,Google Places API,2026-04-21,32.7630074,-117.1300128,,,,,
Laredo Taco Company,"3504 El Cajon Blvd, San Diego, CA 92104, USA",(619) 607-8742,https://www.laredotacocompany.com/restaurant-locator/detail/38571?utm_source=G&utm_medium=local&utm_campaign=google-local,,Monday: Open 24 hours | Tuesday: Open 24 hours | Wednesday: Open 24 hours | Thursday: Open 24 hours | Friday: Open 24 hours | Saturday: Open 24 hours | Sunday: Open 24 hours,4,82,,Google Places API,2026-04-21,32.7557016,-117.11772370000001,,,,,
Kensington Cafe,"4141 Adams Ave, San Diego, CA 92116, USA",(619) 640-0494,http://www.kensingtoncafesd.com/,,Monday: 7:30 AM – 2:00 PM | Tuesday: 7:30 AM – 2:00 PM | Wednesday: 7:30 AM – 2:00 PM | Thursday: 7:30 AM – 2:00 PM | Friday: 7:30 AM – 2:00 PM | Saturday: 7:30 AM – 3:00 PM | Sunday: 7:30 AM – 3:00 PM,4.5,1284,PRICE_LEVEL_MODERATE,Google Places API,2026-04-21,32.763041699999995,-117.10611730000001,,,,,
Venice Pizza House Since 1954,"3333 El Cajon Blvd, San Diego, CA 92104, USA",(619) 283-2333,https://venicepizzahousesd.com/,Monday: 3:00 PM - 5:00 PM | Tuesday: 3:00 PM - 5:00 PM | Wednesday: 3:00 PM - 5:00 PM | Thursday: 3:00 PM - 5:00 PM | Friday: 3:00 PM - 5:00 PM | Saturday: 3:00 PM - 5:00 PM | Sunday: 3:00 PM - 5:00 PM,Monday: 11:00 AM – 10:00 PM | Tuesday: 11:00 AM – 10:00 PM | Wednesday: 11:00 AM – 10:00 PM | Thursday: 11:00 AM – 10:00 PM | Friday: 11:00 AM – 10:00 PM | Saturday: 11:00 AM – 10:00 PM | Sunday: 11:00 AM – 10:00 PM,4.6,1035,PRICE_LEVEL_MODERATE,"Website (AI parsed, high confidence)",2026-04-21,32.7550212,-117.12162149999997,,,,,
Brothers Mexican Restaurant,"3531 39 Adams Ave, San Diego, CA 92116, USA",(619) 228-9673,https://www.clover.com/online-ordering/brothers-mexican-restau-san-diego,,Monday: 8:00 AM – 10:00 PM | Tuesday: 8:00 AM – 10:00 PM | Wednesday: 8:00 AM – 10:00 PM | Thursday: 8:00 AM – 10:00 PM | Friday: 8:00 AM – 10:00 PM | Saturday: 8:00 AM – 10:00 PM | Sunday: 8:00 AM – 10:00 PM,4.4,196,PRICE_LEVEL_INEXPENSIVE,Google Places API,2026-04-21,32.7631328,-117.1166881,,,,,
Siamo Napoli Restaurant,"3959 30th St STE 105, San Diego, CA 92104, USA",(619) 310-6981,http://siamonapolisd.com/,,Monday: 4:00 – 8:30 PM | Tuesday: 4:00 – 8:30 PM | Wednesday: 4:00 – 8:30 PM | Thursday: 4:00 – 8:30 PM | Friday: 4:00 – 9:30 PM | Saturday: 4:00 – 9:30 PM | Sunday: 4:00 – 8:30 PM,4.7,938,PRICE_LEVEL_MODERATE,Google Places API,2026-04-21,32.7494113,-117.1299076,,,,,
Pappalecco,"4202 Adams Ave, San Diego, CA 92116, USA",(619) 255-4770,https://pappalecco.com/,Monday: 2:00 – 6:00 PM | Tuesday: 2:00 – 6:00 PM | Wednesday: 2:00 – 6:00 PM | Thursday: 2:00 – 6:00 PM | Friday: 2:00 – 6:00 PM | Saturday: Closed | Sunday: Closed,Monday: 7:00 AM – 9:30 PM | Tuesday: 7:00 AM – 9:30 PM | Wednesday: 7:00 AM – 9:30 PM | Thursday: 7:00 AM – 9:30 PM | Friday: 7:00 AM – 10:00 PM | Saturday: 7:00 AM – 10:00 PM | Sunday: 7:00 AM – 9:30 PM,4.7,805,PRICE_LEVEL_MODERATE,Google Places API (Happy Hours),2026-04-21,32.7633478,-117.10462260000001,,,,,
Nozaru Ramen Bar,"3375 Adams Ave, San Diego, CA 92116, USA",(619) 564-7183,http://nozaruramen.com/,Monday: 4:00 – 6:00 PM | Tuesday: 4:00 – 6:00 PM | Wednesday: 4:00 – 6:00 PM | Thursday: 4:00 – 6:00 PM | Friday: 4:00 – 6:00 PM | Saturday: 4:00 – 6:00 PM | Sunday: 4:00 – 6:00 PM,Monday: 4:00 – 9:00 PM | Tuesday: 4:00 – 9:00 PM | Wednesday: 4:00 – 9:00 PM | Thursday: 4:00 – 9:00 PM | Friday: 12:00 – 10:00 PM | Saturday: 12:00 – 10:00 PM | Sunday: 12:00 – 9:00 PM,4.5,373,PRICE_LEVEL_MODERATE,Google Places API (Happy Hours),2026-04-21,32.7631174,-117.12118999999998,,,,,
Sonic Drive-In,"2829 El Cajon Blvd, San Diego, CA 92104, USA",(619) 285-3942,http://www.sonicdrivein.com/locations/us/ca/san-diego/2829-el-cajon-boulevard/store-6444?utm_source=google-my-business&utm_medium=organic&utm_campaign=website-link&y_source=1_MjAzMzczMDczMC03MTUtbG9jYXRpb24ud2Vic2l0ZQ%3D%3D,,Monday: 9:00 AM – 2:00 AM | Tuesday: 9:00 AM – 2:00 AM | Wednesday: 9:00 AM – 2:00 AM | Thursday: 9:00 AM – 2:00 AM | Friday: 9:00 AM – 2:00 AM | Saturday: 9:00 AM – 2:00 AM | Sunday: 9:00 AM – 2:00 AM,3.8,2192,PRICE_LEVEL_INEXPENSIVE,Google Places API,2026-04-21,32.754902799999996,-117.13289399999998,,,,,
Sahara on Adams,"3355 Adams Ave, San Diego, CA 92116, USA",(619) 380-2292,http://www.saharaonadams.com/,,Monday: 11:00 AM – 9:00 PM | Tuesday: 11:00 AM – 9:00 PM | Wednesday: 11:00 AM – 9:00 PM | Thursday: 11:00 AM – 9:00 PM | Friday: 11:00 AM – 10:00 PM | Saturday: 11:00 AM – 10:00 PM | Sunday: 11:00 AM – 8:00 PM,4.5,160,PRICE_LEVEL_MODERATE,Google Places API,2026-04-21,32.7632252,-117.1215399,,,,,
Chris' Ono Grinds Island Grill - North Park,"4506 30th St, San Diego, CA 92116, USA",(619) 269-9962,https://onogrindscafe.com/,,Monday: 11:30 AM – 9:00 PM | Tuesday: Closed | Wednesday: 11:30 AM – 9:00 PM | Thursday: 11:30 AM – 9:00 PM | Friday: 11:30 AM – 9:00 PM | Saturday: 11:30 AM – 9:00 PM | Sunday: 11:30 AM – 9:00 PM,4.6,909,PRICE_LEVEL_INEXPENSIVE,Google Places API,2026-04-21,32.7593864,-117.13036140000001,,,,,
Jyoti-Bihanga Vegan & Vegetarian Restaurant,"3351 Adams Ave, San Diego, CA 92116, USA",(619) 282-4116,http://www.jyotibihanga.com/,,Monday: 11:30 AM – 8:30 PM | Tuesday: 11:30 AM – 8:30 PM | Wednesday: 11:30 AM – 3:00 PM | Thursday: 11:30 AM – 8:30 PM | Friday: 11:30 AM – 8:30 PM | Saturday: 11:30 AM – 8:30 PM | Sunday: Closed,4.8,533,PRICE_LEVEL_INEXPENSIVE,Google Places API,2026-04-21,32.763206,-117.12159299999998,,,,,
The Haven Pizzeria,"4051 Adams Ave, San Diego, CA 92116, USA",(619) 281-1904,https://www.thehavenpizzeria.com/,Monday: 3:00 – 5:00 PM | Tuesday: 3:00 – 5:00 PM | Wednesday: 3:00 – 5:00 PM | Thursday: 3:00 – 5:00 PM | Friday: 3:00 – 5:00 PM | Saturday: Closed | Sunday: Closed,Monday: 3:00 – 8:30 PM | Tuesday: 3:00 – 8:30 PM | Wednesday: 3:00 – 8:30 PM | Thursday: 3:00 – 8:30 PM | Friday: 11:30 AM – 9:00 PM | Saturday: 11:30 AM – 9:00 PM | Sunday: 11:30 AM – 8:00 PM,4.6,420,PRICE_LEVEL_MODERATE,Google Places API (Happy Hours),2026-04-21,32.7631367,-117.10826089999999,,,,,
White Rice,"3586 Adams Ave Suite 100, San Diego, CA 92116, USA",(619) 255-1972,https://www.ricebowlsforall.com/,,Monday: 11:00 AM – 7:00 PM | Tuesday: 11:00 AM – 7:00 PM | Wednesday: 11:00 AM – 7:00 PM | Thursday: 11:00 AM – 7:00 PM | Friday: 11:00 AM – 8:00 PM | Saturday: 11:00 AM – 8:00 PM | Sunday: 11:00 AM – 7:00 PM,4.2,212,PRICE_LEVEL_MODERATE,Google Places API,2026-04-21,32.763556799999996,-117.1155513,,,,,
100's seafood grill buffet,"2828 Camino del Rio S, San Diego, CA 92108, USA",(619) 906-4886,http://100sbuffet.com/,,Monday: 4:00 – 9:00 PM | Tuesday: Closed | Wednesday: 4:00 – 9:00 PM | Thursday: 4:00 – 9:00 PM | Friday: 4:00 – 9:00 PM | Saturday: 12:00 – 9:00 PM | Sunday: 12:00 – 9:00 PM,4.3,4164,PRICE_LEVEL_MODERATE,Google Places API,2026-04-21,32.7709067,-117.13224640000001,,,,,
Ximalli Restaurant,"3677 University Ave, San Diego, CA 92104, USA",(619) 359-0235,https://ximalli.restaurant/,,Monday: 8:00 AM – 10:00 PM | Tuesday: 8:00 AM – 10:00 PM | Wednesday: 8:00 AM – 10:00 PM | Thursday: 8:00 AM – 10:00 PM | Friday: 8:00 AM – 10:00 PM | Saturday: 8:00 AM – 10:00 PM | Sunday: 8:00 AM – 10:00 PM,5,8,,Google Places API,2026-04-21,32.749582,-117.11367539999999,,,,,
Ponce's Mexican Restaurant,"4050 Adams Ave, San Diego, CA 92116, USA",(619) 282-4413,http://www.poncesrestaurant.com/,"Monday: 2:00 – 5:00 PM, 8:00 – 9:00 PM | Tuesday: 2:00 – 5:00 PM, 8:00 – 9:00 PM | Wednesday: 2:00 – 5:00 PM, 8:00 – 9:00 PM | Thursday: 2:00 – 5:00 PM, 8:00 – 9:00 PM | Friday: 2:00 – 5:00 PM | Saturday: 2:00 – 5:00 PM | Sunday: Closed",Monday: 11:00 AM – 9:00 PM | Tuesday: 11:00 AM – 9:00 PM | Wednesday: 11:00 AM – 9:00 PM | Thursday: 11:00 AM – 9:00 PM | Friday: 11:00 AM – 9:00 PM | Saturday: 11:00 AM – 9:00 PM | Sunday: Closed,4.5,1815,PRICE_LEVEL_MODERATE,Google Places API (Happy Hours),2026-04-21,32.7634628,-117.1082107,,,,,
Thai Joint,"3456 Adams Ave, San Diego, CA 92116, USA",(619) 564-6659,http://thai-joint.com/,,"Monday: 11:30 AM – 2:30 PM, 4:00 – 9:00 PM | Tuesday: 11:30 AM – 2:30 PM, 4:00 – 9:00 PM | Wednesday: 11:30 AM – 2:30 PM, 4:00 – 9:00 PM | Thursday: 11:30 AM – 2:30 PM, 4:00 – 9:00 PM | Friday: 11:00 AM – 2:30 PM, 4:00 – 9:00 PM | Saturday: 11:00 AM – 9:00 PM | Sunday: 11:00 AM – 9:00 PM",4.4,232,PRICE_LEVEL_MODERATE,Google Places API,2026-04-21,32.763594,-117.11881760000001,,,,,
El Comal North Park,"3946 Illinois St, San Diego, CA 92104, USA",(619) 294-8292,https://elcomalsd.com/?utm_source=google,,"Monday: 10:00 AM – 3:00 PM, 5:00 – 9:00 PM | Tuesday: 10:00 AM – 3:00 PM, 5:00 – 9:00 PM | Wednesday: 10:00 AM – 3:00 PM, 5:00 – 9:00 PM | Thursday: 10:00 AM – 3:00 PM, 5:00 – 9:00 PM | Friday: 10:00 AM – 9:00 PM | Saturday: 9:00 AM – 9:00 PM | Sunday: 9:00 AM – 8:00 PM",4.4,1251,PRICE_LEVEL_MODERATE,Google Places API,2026-04-21,32.749352699999996,-117.1279433,,,,,
Working Class,"4095 30th St, San Diego, CA 92104, USA",(619) 642-0114,http://www.workingclasssd.com/,Monday: 3:00 – 6:00 PM | Tuesday: 3:00 – 6:00 PM | Wednesday: 3:00 – 6:00 PM | Thursday: 3:00 – 6:00 PM | Friday: 3:00 – 6:00 PM | Saturday: Closed | Sunday: Closed,Monday: 9:00 AM – 10:00 PM | Tuesday: 9:00 AM – 10:00 PM | Wednesday: 9:00 AM – 10:00 PM | Thursday: 9:00 AM – 10:00 PM | Friday: 9:00 AM – 10:00 PM | Saturday: 9:00 AM – 10:00 PM | Sunday: 9:00 AM – 9:00 PM,4.5,860,PRICE_LEVEL_MODERATE,Google Places API (Happy Hours),2026-04-21,32.752063,-117.1299853,,,,,
Hom Mali by The NoodBar,"4596 30th St, San Diego, CA 92116, USA",(619) 269-2117,https://www.ordernoodbar.com/,,"Monday: 11:30 AM – 3:30 PM, 4:30 – 9:30 PM | Tuesday: 11:30 AM – 3:30 PM, 4:30 – 9:30 PM | Wednesday: 11:30 AM – 3:30 PM, 4:30 – 9:30 PM | Thursday: 11:30 AM – 3:30 PM, 4:30 – 9:30 PM | Friday: 11:30 AM – 3:30 PM, 4:30 – 9:30 PM | Saturday: 11:30 AM – 3:30 PM, 4:30 – 9:30 PM | Sunday: 11:30 AM – 3:30 PM, 4:30 – 9:30 PM",4.3,311,PRICE_LEVEL_MODERATE,Google Places API,2026-04-21,32.760827,-117.13042320000001,,,,,
Jack in the Box,"4075 University Ave, San Diego, CA 92105, USA",(619) 281-8735,https://locations.jackinthebox.com/us/ca/san-diego/4075-university-ave?utm_source=google&utm_medium=local&utm_campaign=google-local,,Monday: Open 24 hours | Tuesday: Open 24 hours | Wednesday: Open 24 hours | Thursday: Open 24 hours | Friday: Open 24 hours | Saturday: Open 24 hours | Sunday: Open 24 hours,3.9,1806,PRICE_LEVEL_INEXPENSIVE,Google Places API,2026-04-21,32.749468799999995,-117.1074142,,,,,
Jack in the Box,"2890 El Cajon Blvd, San Diego, CA 92104, USA",(619) 283-3412,https://locations.jackinthebox.com/us/ca/san-diego/2890-el-cajon-blvd?utm_source=google&utm_medium=local&utm_campaign=google-local,,Monday: 4:30 AM – 3:30 AM | Tuesday: 4:30 AM – 3:30 AM | Wednesday: 4:30 AM – 3:30 AM | Thursday: 4:30 AM – 3:30 AM | Friday: 4:30 AM – 3:30 AM | Saturday: 4:30 AM – 3:30 AM | Sunday: 4:30 AM – 3:30 AM,3.6,955,PRICE_LEVEL_INEXPENSIVE,Google Places API,2026-04-21,32.755618,-117.13172299999998,,,,,
Thai Time North Park,"4102 30th St, San Diego, CA 92104, USA",(619) 282-1060,https://www.toasttab.com/thai-time-northpark-4102-30th-street,,Monday: 11:30 AM – 9:30 PM | Tuesday: 11:30 AM – 9:30 PM | Wednesday: 11:30 AM – 9:30 PM | Thursday: 11:30 AM – 9:30 PM | Friday: 11:30 AM – 10:00 PM | Saturday: 11:30 AM – 10:00 PM | Sunday: 11:30 AM – 9:30 PM,4.4,581,PRICE_LEVEL_INEXPENSIVE,Google Places API,2026-04-21,32.7523245,-117.1303214,,,,,
Taco Bell,"2626 El Cajon Blvd, San Diego, CA 92104, USA",(619) 296-5277,https://locations.tacobell.com/ca/san-diego/2626-el-cajon-blvd.html?utm_source=yext&utm_campaign=googlelistings&utm_medium=referral&utm_term=025498&utm_content=website&y_source=1_NjE0NDczMC03MTUtbG9jYXRpb24ud2Vic2l0ZQ%3D%3D,,Monday: Open 24 hours | Tuesday: Open 24 hours | Wednesday: Open 24 hours | Thursday: Open 24 hours | Friday: Open 24 hours | Saturday: Open 24 hours | Sunday: Open 24 hours,3.5,1750,PRICE_LEVEL_INEXPENSIVE,Google Places API,2026-04-21,32.755691999999996,-117.13615899999999,,,,,
Zia Gourmet Pizza,"3311 Adams Ave A, San Diego, CA 92116, USA",(619) 284-4320,http://www.ziagourmetpizza.com/,,Monday: 5:00 – 11:00 PM | Tuesday: 5:00 – 11:00 PM | Wednesday: 5:00 – 11:00 PM | Thursday: 5:00 – 11:00 PM | Friday: 5:00 – 11:00 PM | Saturday: 5:00 – 11:00 PM | Sunday: 5:00 – 11:00 PM,4.8,634,PRICE_LEVEL_INEXPENSIVE,Google Places API,2026-04-21,32.7632222,-117.12261939999998,,,,,
Donna Jean,"2611 El Cajon Blvd, San Diego, CA 92104, USA",(619) 299-5500,https://donnajeanrestaurant.com/,,"Monday: 5:00 – 9:00 PM | Tuesday: Closed | Wednesday: 5:00 – 9:00 PM | Thursday: 5:00 – 9:00 PM | Friday: 5:00 – 9:00 PM | Saturday: 11:00 AM – 3:00 PM, 5:00 – 9:00 PM | Sunday: 11:00 AM – 3:00 PM, 5:00 – 9:00 PM",4.5,1199,PRICE_LEVEL_MODERATE,Google Places API,2026-04-21,32.754922,-117.13577529999999,,,,,
SoCal Sushi,"3454 Adams Ave, San Diego, CA 92116, USA",(619) 255-7388,https://socalsushigo.site/,,Monday: 4:00 – 9:00 PM | Tuesday: 4:00 – 9:00 PM | Wednesday: 4:00 – 9:00 PM | Thursday: 4:00 – 9:00 PM | Friday: 12:00 – 9:00 PM | Saturday: 12:00 – 9:00 PM | Sunday: Closed,4.8,244,PRICE_LEVEL_MODERATE,Google Places API,2026-04-21,32.763593,-117.11882700000001,,,,,
Brother's Mexican Restaurant,"4006 30th St, San Diego, CA 92104, USA",(619) 563-5647,https://www.clover.com/online-ordering/brothers-mexican-food-re-san-diego,,Monday: 8:00 AM – 10:00 PM | Tuesday: 8:00 AM – 10:00 PM | Wednesday: 8:00 AM – 10:00 PM | Thursday: 8:00 AM – 10:00 PM | Friday: 6:00 AM – 2:00 AM | Saturday: 6:00 AM – 2:00 AM | Sunday: 8:00 AM – 10:00 PM,4.5,313,PRICE_LEVEL_MODERATE,Google Places API,2026-04-21,32.750575,-117.1304083,,,,,
El Zarape Mexican Eatery,"3038 Adams Ave, San Diego, CA 92116, USA",(619) 794-0358,http://elzarapeeatery.com/,,Monday: 11:00 AM – 9:00 PM | Tuesday: 11:00 AM – 9:00 PM | Wednesday: 11:00 AM – 9:00 PM | Thursday: 11:00 AM – 9:00 PM | Friday: 11:00 AM – 10:00 PM | Saturday: 11:00 AM – 10:00 PM | Sunday: 11:00 AM – 8:00 PM,4.3,451,PRICE_LEVEL_INEXPENSIVE,Google Places API,2026-04-21,32.763052,-117.12934199999998,,,,,
Rolberto's Taco Shop,"4090 El Cajon Blvd APT G, San Diego, CA 92105, USA",(619) 282-9859,,,Monday: 6:00 AM – 12:00 AM | Tuesday: 6:00 AM – 12:00 AM | Wednesday: 6:00 AM – 12:00 AM | Thursday: 6:00 AM – 12:00 AM | Friday: 6:00 AM – 12:00 AM | Saturday: 6:00 AM – 12:00 AM | Sunday: 6:00 AM – 12:00 AM,4.1,452,PRICE_LEVEL_INEXPENSIVE,Google Places API,2026-04-21,32.7556101,-117.1074245,,,,,
Sycamore Den,"3391 Adams Ave, San Diego, CA 92116, USA",(619) 259-0045,http://www.sycamoreden.com/,Monday: 5:00 PM - 7:00 PM | Tuesday: 5:00 PM - 7:00 PM | Wednesday: 5:00 PM - 7:00 PM | Thursday: 5:00 PM - 7:00 PM | Friday: 2:00 PM - 7:00 PM | Saturday: 2:00 PM - 7:00 PM | Sunday: 2:00 PM - 7:00 PM,Monday: 5:00 PM – 2:00 AM | Tuesday: 5:00 PM – 2:00 AM | Wednesday: 5:00 PM – 2:00 AM | Thursday: 5:00 PM – 2:00 AM | Friday: 2:00 PM – 2:00 AM | Saturday: 2:00 PM – 2:00 AM | Sunday: 2:00 PM – 2:00 AM,4.4,392,PRICE_LEVEL_MODERATE,"Website (AI parsed, high confidence)",2026-04-21,32.76324170000001,-117.12089440000001,,,,,
Rosie O'Grady's,"3402 Adams Ave, San Diego, CA 92116, USA",(619) 284-7666,http://rosieogradyssd.com/,Monday: 4:00 PM - 7:00 PM | Tuesday: 4:00 PM - 7:00 PM | Wednesday: 4:00 PM - 7:00 PM | Thursday: 4:00 PM - 7:00 PM | Friday: 4:00 PM - 7:00 PM | Saturday: Closed | Sunday: Closed,Monday: 11:00 AM – 2:00 AM | Tuesday: 11:00 AM – 2:00 AM | Wednesday: 11:00 AM – 2:00 AM | Thursday: 11:00 AM – 2:00 AM | Friday: 11:00 AM – 2:00 AM | Saturday: 11:00 AM – 2:00 AM | Sunday: 10:00 AM – 2:00 AM,4.4,461,PRICE_LEVEL_INEXPENSIVE,"Website (AI parsed, high confidence)",2026-04-21,32.7635404,-117.12053890000001,,,,,
Triple Crown Pub,"3221 Adams Ave, San Diego, CA 92116, USA",,,,Monday: 5:00 PM – 12:00 AM | Tuesday: 5:00 PM – 1:30 AM | Wednesday: 5:00 PM – 1:30 AM | Thursday: 5:00 PM – 1:30 AM | Friday: 5:00 PM – 1:30 AM | Saturday: 3:00 PM – 1:30 AM | Sunday: 3:00 PM – 1:30 AM,4.4,430,PRICE_LEVEL_INEXPENSIVE,Google Places API,2026-04-21,32.763189,-117.12442870000001,,,,,
Polite Provisions,"4696 30th St, San Diego, CA 92116, USA",(619) 269-4701,http://politeprovisions.com/,,Monday: 5:00 PM – 2:00 AM | Tuesday: 5:00 PM – 2:00 AM | Wednesday: 5:00 PM – 2:00 AM | Thursday: 5:00 PM – 2:00 AM | Friday: 3:00 PM – 2:00 AM | Saturday: 3:00 PM – 2:00 AM | Sunday: 3:00 PM – 2:00 AM,4.6,2082,PRICE_LEVEL_MODERATE,Google Places API,2026-04-21,32.7627472,-117.1303853,,,,,
Cricket's Pub,"3339 El Cajon Blvd, San Diego, CA 92104, USA",(619) 282-8277,https://cricketspub.simdif.com/,Monday: 6:00 – 9:00 PM | Tuesday: 6:00 – 9:00 PM | Wednesday: 4:00 – 7:00 PM | Thursday: 4:00 – 7:00 PM | Friday: 4:00 – 7:00 PM | Saturday: Closed | Sunday: 10:00 AM – 12:00 PM,Monday: 10:00 AM – 2:00 AM | Tuesday: 10:00 AM – 2:00 AM | Wednesday: 10:00 AM – 2:00 AM | Thursday: 10:00 AM – 2:00 AM | Friday: 10:00 AM – 2:00 AM | Saturday: 10:00 AM – 2:00 AM | Sunday: 10:00 AM – 2:00 AM,4.4,104,PRICE_LEVEL_INEXPENSIVE,Google Places API (Happy Hours),2026-04-21,32.754993,-117.1215057,,,,,
Soda Bar,"3615 El Cajon Blvd, San Diego, CA 92104, USA",,http://sodabarmusic.com/,,Monday: 7:00 PM – 1:00 AM | Tuesday: 7:00 PM – 1:00 AM | Wednesday: 7:00 PM – 1:00 AM | Thursday: 7:00 PM – 1:00 AM | Friday: 7:00 PM – 1:00 AM | Saturday: 7:00 PM – 1:00 AM | Sunday: 7:00 PM – 1:00 AM,4.4,707,PRICE_LEVEL_INEXPENSIVE,Google Places API,2026-04-21,32.7550598,-117.11542,,,,,
Part Time Lover,"3829 30th St, San Diego, CA 92104, USA",(619) 932-4434,http://parttimeloverhifi.com/,,Monday: 4:00 PM – 2:00 AM | Tuesday: 4:00 PM – 2:00 AM | Wednesday: 4:00 PM – 2:00 AM | Thursday: 4:00 PM – 2:00 AM | Friday: 4:00 PM – 2:00 AM | Saturday: 4:00 PM – 2:00 AM | Sunday: 4:00 PM – 2:00 AM,4.5,504,PRICE_LEVEL_MODERATE,Google Places API,2026-04-21,32.747976799999996,-117.12994439999999,,,,,
Redwing Bar & Grill,"4012 30th St, San Diego, CA 92104, USA",(619) 281-8700,http://www.redwingbar.com/,,Monday: 2:00 PM – 1:00 AM | Tuesday: 11:00 AM – 1:00 AM | Wednesday: 11:00 AM – 1:00 AM | Thursday: 11:00 AM – 1:00 AM | Friday: 11:00 AM – 2:00 AM | Saturday: 11:00 AM – 2:00 AM | Sunday: 11:00 AM – 1:00 AM,4.4,1168,PRICE_LEVEL_INEXPENSIVE,Google Places API,2026-04-21,32.750651999999995,-117.13041539999999,,,,,
Seven Grand San Diego,"3054 University Ave, San Diego, CA 92104, USA",(619) 269-8820,https://www.sevengrandsd.com/,Monday: 4:00 – 8:00 PM | Tuesday: 4:00 – 8:00 PM | Wednesday: 4:00 – 8:00 PM | Thursday: 4:00 – 8:00 PM | Friday: 4:00 – 8:00 PM | Saturday: 4:00 – 8:00 PM | Sunday: 4:00 – 8:00 PM,Monday: 4:00 PM – 2:00 AM | Tuesday: 4:00 PM – 2:00 AM | Wednesday: 4:00 PM – 2:00 AM | Thursday: 4:00 PM – 2:00 AM | Friday: 4:00 PM – 2:00 AM | Saturday: 4:00 PM – 2:00 AM | Sunday: 4:00 PM – 2:00 AM,4.5,940,PRICE_LEVEL_MODERATE,Google Places API (Happy Hours),2026-04-21,32.7486155,-117.1286142,,,,,
The Office Bar,"3936 30th St, San Diego, CA 92104, USA",(619) 450-6632,http://www.theofficebarsd.com/,Monday: 7:00 – 9:00 PM | Tuesday: 7:00 – 9:00 PM | Wednesday: 5:00 – 9:00 PM | Thursday: 5:00 – 9:00 PM | Friday: 5:00 – 9:00 PM | Saturday: 5:00 – 9:00 PM | Sunday: 5:00 – 9:00 PM,Monday: 7:00 PM – 1:45 AM | Tuesday: 7:00 PM – 1:45 AM | Wednesday: 5:00 PM – 1:45 AM | Thursday: 5:00 PM – 1:45 AM | Friday: 5:00 PM – 1:45 AM | Saturday: 5:00 PM – 1:45 AM | Sunday: 5:00 PM – 1:45 AM,4.1,550,PRICE_LEVEL_MODERATE,Google Places API (Happy Hours),2026-04-21,32.7492131,-117.1302676,,,,,
The Avenue Sports Bar,"3412 University Ave, San Diego, CA 92104, USA",,,,Monday: 12:00 PM – 2:00 AM | Tuesday: 12:00 PM – 2:00 AM | Wednesday: 12:00 PM – 2:00 AM | Thursday: 12:00 PM – 2:00 AM | Friday: 12:00 PM – 2:00 AM | Saturday: 12:00 PM – 2:00 AM | Sunday: 12:00 PM – 2:00 AM,4.2,45,,Google Places API,2026-04-21,32.749975299999996,-117.12016039999997,,,,,
The Banshee Bar,"3519 El Cajon Blvd, San Diego, CA 92104, USA",(619) 357-5666,https://thebansheebar.com/,Monday: 5:00 PM - 7:00 PM | Tuesday: 5:00 PM - 7:00 PM | Wednesday: 5:00 PM - 7:00 PM | Thursday: 5:00 PM - 7:00 PM | Friday: 5:00 PM - 7:00 PM | Saturday: 5:00 PM - 7:00 PM | Sunday: 5:00 PM - 7:00 PM,Monday: 5:00 PM – 2:00 AM | Tuesday: 5:00 PM – 2:00 AM | Wednesday: 5:00 PM – 2:00 AM | Thursday: 5:00 PM – 2:00 AM | Friday: 5:00 PM – 2:00 AM | Saturday: 5:00 PM – 2:00 AM | Sunday: 5:00 PM – 2:00 AM,4.6,10,,"Website (AI parsed, high confidence)",2026-04-21,32.7550248,-117.1175062,,,,,
U-31,"3112 University Ave, San Diego, CA 92104, USA",(619) 584-4188,http://www.u31bar.com/,Monday: 5:00 PM – 1:30 AM | Tuesday: 5:00 PM – 2:00 AM | Wednesday: 5:00 PM – 2:00 AM | Thursday: 5:00 PM – 2:00 AM | Friday: 5:00 PM – 2:00 AM | Saturday: 2:00 PM – 2:00 AM | Sunday: 9:00 AM – 1:30 AM,Monday: 5:00 PM – 2:00 AM | Tuesday: 5:00 PM – 2:00 AM | Wednesday: 5:00 PM – 2:00 AM | Thursday: 5:00 PM – 2:00 AM | Friday: 5:00 PM – 2:00 AM | Saturday: 2:00 PM – 2:00 AM | Sunday: 2:00 PM – 2:00 AM,4.1,600,PRICE_LEVEL_MODERATE,Google Places API (Happy Hours),2026-04-21,32.7486229,-117.12728879999999,,,,,
Swan Bar,"2933 Adams Ave, San Diego, CA 92116, USA",,,Monday: Closed | Tuesday: 4:00 – 5:00 PM | Wednesday: 4:00 – 5:00 PM | Thursday: 4:00 – 5:00 PM | Friday: 4:00 – 5:00 PM | Saturday: 4:00 – 5:00 PM | Sunday: Closed,Monday: Closed | Tuesday: 4:00 PM – 12:00 AM | Wednesday: 4:00 PM – 12:00 AM | Thursday: 4:00 PM – 12:00 AM | Friday: 4:00 PM – 12:00 AM | Saturday: 3:00 PM – 12:00 AM | Sunday: Closed,4.5,252,PRICE_LEVEL_INEXPENSIVE,Google Places API (Happy Hours),2026-04-21,32.7627368,-117.1306712,,,,,
Cleopatra's Lounge,"3311 Adams Ave A, San Diego, CA 92116, USA",(619) 955-7559,https://cleopatrahookah2014.com/,Monday: 3:00 PM - 7:00 PM | Tuesday: 3:00 PM - 7:00 PM | Wednesday: 3:00 PM - 7:00 PM | Thursday: 3:00 PM - 7:00 PM | Friday: 3:00 PM - 7:00 PM | Saturday: 3:00 PM - 7:00 PM | Sunday: 3:00 PM - 7:00 PM,Monday: 3:00 PM – 2:00 AM | Tuesday: 3:00 PM – 2:00 AM | Wednesday: 3:00 PM – 2:00 AM | Thursday: 3:00 PM – 2:00 AM | Friday: 3:00 PM – 2:00 AM | Saturday: 3:00 PM – 2:00 AM | Sunday: 3:00 PM – 2:00 AM,4.6,73,,"Website (AI parsed, high confidence)",2026-04-21,32.7631525,-117.122517,,,,,
Happy Medium,"4002 30th St, San Diego, CA 92104, USA",(619) 310-5642,http://www.happymediumsd.com/,,Monday: 4:00 PM – 12:00 AM | Tuesday: 4:00 PM – 12:00 AM | Wednesday: 4:00 PM – 12:00 AM | Thursday: 4:00 PM – 12:00 AM | Friday: 11:00 AM – 12:00 AM | Saturday: 11:00 AM – 12:00 AM | Sunday: 11:00 AM – 12:00 AM,4.7,129,PRICE_LEVEL_MODERATE,Google Places API,2026-04-21,32.7504907,-117.13038119999999,,,,,
San Diego Eagle,"3040 N Park Way, San Diego, CA 92104, USA",(619) 295-8072,http://www.sandiegoeagle.com/,Monday: 4:00 – 8:00 PM | Tuesday: 4:00 – 8:00 PM | Wednesday: 4:00 – 8:00 PM | Thursday: 4:00 – 8:00 PM | Friday: 2:00 – 8:00 PM | Saturday: 2:00 – 8:00 PM | Sunday: 2:00 – 8:00 PM,Monday: 4:00 PM – 2:00 AM | Tuesday: 4:00 PM – 2:00 AM | Wednesday: 4:00 PM – 2:00 AM | Thursday: 4:00 PM – 2:00 AM | Friday: 2:00 PM – 2:00 AM | Saturday: 2:00 PM – 2:00 AM | Sunday: 2:00 PM – 2:00 AM,3.8,82,PRICE_LEVEL_INEXPENSIVE,Google Places API (Happy Hours),2026-04-21,32.7475976,-117.12872990000001,,,,,
Coin-Op Game Room,"3926 30th St, San Diego, CA 92104, USA",(619) 255-8523,https://coinopgameroom.com/,,Monday: 5:00 PM – 12:00 AM | Tuesday: 5:00 PM – 12:00 AM | Wednesday: 5:00 PM – 12:00 AM | Thursday: 5:00 PM – 12:00 AM | Friday: 5:00 PM – 2:00 AM | Saturday: 2:00 PM – 2:00 AM | Sunday: 2:00 PM – 12:00 AM,4.4,1241,PRICE_LEVEL_MODERATE,Google Places API,2026-04-21,32.7490528,-117.1304167,,,,,
Dave & Buster's San Diego,"2931 Camino Del Rio N, San Diego, CA 92108, USA",(619) 280-7115,https://www.daveandbusters.com/us/en/about/locations/san-diego,"Monday: 4:00 – 7:00 PM, 10:00 PM – 12:00 AM | Tuesday: 4:00 – 7:00 PM, 10:00 PM – 12:00 AM | Wednesday: 4:00 – 7:00 PM, 10:00 PM – 1:00 AM | Thursday: 4:00 – 7:00 PM, 10:00 PM – 1:00 AM | Friday: 4:00 – 7:00 PM | Saturday: Closed | Sunday: 10:00 PM – 12:00 AM",Monday: 11:00 AM – 12:00 AM | Tuesday: 11:00 AM – 12:00 AM | Wednesday: 11:00 AM – 1:00 AM | Thursday: 11:00 AM – 1:00 AM | Friday: 11:00 AM – 2:00 AM | Saturday: 10:00 AM – 1:00 AM | Sunday: 10:00 AM – 12:00 AM,4.2,7897,PRICE_LEVEL_MODERATE,Google Places API (Happy Hours),2026-04-21,32.7727419,-117.1314573,,,,,
AIR CONDITIONED Lounge,"4673 30th St, San Diego, CA 92116, USA",(619) 501-9831,https://airconditionedlounge.com/,Monday: Closed | Tuesday: Closed | Wednesday: 5:00 PM - 8:00 PM | Thursday: 5:00 PM - 8:00 PM | Friday: 5:00 PM - 8:00 PM | Saturday: 5:00 PM - 8:00 PM | Sunday: 5:00 PM - 8:00 PM,Monday: Closed | Tuesday: Closed | Wednesday: 5:00 PM – 2:00 AM | Thursday: 5:00 PM – 2:00 AM | Friday: 5:00 PM – 2:00 AM | Saturday: 5:00 PM – 2:00 AM | Sunday: 3:00 – 8:00 PM,4.5,210,PRICE_LEVEL_MODERATE,"Website (AI parsed, high confidence)",2026-04-21,32.7623879,-117.13006739999999,,,,,
True North Tavern,"3815 30th St, San Diego, CA 92104, USA",(619) 291-3815,http://truenorthtavern.com/,Monday: 4:00 – 10:00 PM | Tuesday: Closed | Wednesday: Closed | Thursday: 4:00 – 11:00 PM | Friday: 11:00 AM – 6:00 PM | Saturday: 9:00 AM – 6:00 PM | Sunday: 9:00 AM – 10:00 PM,Monday: 4:00 – 10:00 PM | Tuesday: Closed | Wednesday: Closed | Thursday: 4:00 – 11:00 PM | Friday: 11:00 AM – 2:00 AM | Saturday: 9:00 AM – 2:00 AM | Sunday: 9:00 AM – 10:00 PM,4,850,PRICE_LEVEL_MODERATE,Google Places API (Happy Hours),2026-04-21,32.7477155,-117.12993540000001,,,,,
Kensington Club,"4079 Adams Ave, San Diego, CA 92116, USA",(619) 284-2848,http://www.kensingtonclub1935.com/,,Monday: Closed | Tuesday: Closed | Wednesday: 4:00 PM – 2:00 AM | Thursday: 4:00 PM – 2:00 AM | Friday: 4:00 PM – 2:00 AM | Saturday: 4:00 PM – 2:00 AM | Sunday: 6:00 PM – 2:00 AM,4.3,277,PRICE_LEVEL_INEXPENSIVE,Google Places API,2026-04-21,32.7631277,-117.1076768,,,,,
West Coast Tavern,"2895 University Ave, San Diego, CA 92104, USA",(619) 543-0113,https://www.westcoasttavern.com/,,Monday: Closed | Tuesday: Closed | Wednesday: Closed | Thursday: 5:00 – 11:00 PM | Friday: 5:00 – 11:00 PM | Saturday: 10:00 AM – 11:00 PM | Sunday: 10:00 AM – 9:00 PM,4.2,527,PRICE_LEVEL_MODERATE,Google Places API,2026-04-21,32.7482495,-117.13139980000001,,,,,
Fairplay,"4026 30th St, San Diego, CA 92104, USA",(619) 269-3222,https://www.fairplaybar.com/,Monday: 2:00 – 5:00 PM | Tuesday: 2:00 – 5:00 PM | Wednesday: 2:00 – 5:00 PM | Thursday: 2:00 – 5:00 PM | Friday: 2:00 – 5:00 PM | Saturday: Closed | Sunday: Closed,Monday: 11:30 AM – 10:00 PM | Tuesday: 11:30 AM – 10:00 PM | Wednesday: 11:30 AM – 12:00 AM | Thursday: 11:30 AM – 12:00 AM | Friday: 11:30 AM – 12:00 AM | Saturday: 9:00 AM – 12:00 AM | Sunday: 8:00 AM – 10:00 PM,4.4,168,,Google Places API (Happy Hours),2026-04-21,32.7508756,-117.13035309999998,,,,,
Crafted Coupe,"3933 30th St Suite 2, San Diego, CA 92104, USA",(619) 572-4001,,,Monday: 5:00 PM – 2:00 AM | Tuesday: Closed | Wednesday: 5:00 PM – 2:00 AM | Thursday: 5:00 PM – 2:00 AM | Friday: 5:00 PM – 2:00 AM | Saturday: 5:00 PM – 2:00 AM | Sunday: 5:00 PM – 2:00 AM,4.6,79,,Google Places API,2026-04-21,32.7492063,-117.12973829999999,,,,,
Botanica Art & Cocktail Bar,"3139 University Ave, San Diego, CA 92104, USA",(619) 310-6370,http://botanicabarsd.com/,Monday: Closed | Tuesday: 5:00 – 9:30 PM | Wednesday: 5:00 – 7:00 PM | Thursday: 5:00 – 7:00 PM | Friday: Closed | Saturday: Closed | Sunday: Closed,Monday: Closed | Tuesday: 5:00 – 10:00 PM | Wednesday: 5:00 – 10:00 PM | Thursday: 5:00 – 10:00 PM | Friday: 5:00 PM – 12:00 AM | Saturday: 5:00 PM – 12:00 AM | Sunday: 5:00 – 10:00 PM,4.4,167,,Google Places API (Happy Hours),2026-04-21,32.7482847,-117.1263374,,,,,
Clem's Tap House,"4108 Adams Ave, San Diego, CA 92116, USA",(619) 255-4526,https://clemstaphouse.com/,,Monday: 11:00 AM – 10:00 PM | Tuesday: 11:00 AM – 10:00 PM | Wednesday: 11:00 AM – 10:00 PM | Thursday: 11:00 AM – 10:00 PM | Friday: 11:00 AM – 12:00 AM | Saturday: 11:00 AM – 12:00 AM | Sunday: 11:00 AM – 10:00 PM,4.7,326,PRICE_LEVEL_MODERATE,Google Places API,2026-04-21,32.7636299,-117.1071016,,,,,
619 Spirits North Park,"3015 Lincoln Ave, San Diego, CA 92104, USA",(619) 269-2757,https://www.619spirits.com/,Monday: 3:00 – 6:00 PM | Tuesday: 3:00 – 6:00 PM | Wednesday: 3:00 – 6:00 PM | Thursday: 3:00 – 6:00 PM | Friday: 3:00 – 6:00 PM | Saturday: 3:00 – 6:00 PM | Sunday: 3:00 – 6:00 PM,Monday: 12:00 – 10:00 PM | Tuesday: 12:00 – 10:00 PM | Wednesday: 12:00 – 10:00 PM | Thursday: 12:00 – 10:00 PM | Friday: 12:00 PM – 1:00 AM | Saturday: 11:00 AM – 1:00 AM | Sunday: 11:00 AM – 9:00 PM,4.4,295,PRICE_LEVEL_MODERATE,Google Places API (Happy Hours),2026-04-21,32.750150999999995,-117.12978980000001,,,,,
Belching Beaver Brewery North Park,"4223 30th St, San Diego, CA 92104, USA",(619) 282-1062,https://northpark.belchingbeaver.com/,Monday: Closed | Tuesday: 3:00 PM - 10:00 PM | Wednesday: Closed | Thursday: Closed | Friday: Closed | Saturday: Closed | Sunday: Closed,Monday: 3:00 – 9:00 PM | Tuesday: 3:00 – 10:00 PM | Wednesday: 3:00 – 10:00 PM | Thursday: 3:00 – 10:00 PM | Friday: 12:00 PM – 12:00 AM | Saturday: 12:00 PM – 12:00 AM | Sunday: 12:00 – 9:00 PM,4.6,474,PRICE_LEVEL_INEXPENSIVE,"Website (AI parsed, medium confidence)",2026-04-21,32.7546222,-117.13005249999998,,,,,
Cantina Mayahuel,"2934 Adams Ave, San Diego, CA 92116, USA",,https://cantinamayahuelsd.com/,,Monday: Closed | Tuesday: 12:00 – 10:00 PM | Wednesday: 12:00 – 10:00 PM | Thursday: 12:00 – 10:00 PM | Friday: 12:00 – 10:00 PM | Saturday: 12:00 – 10:00 PM | Sunday: 12:00 – 10:00 PM,4.6,1132,PRICE_LEVEL_MODERATE,Google Places API,2026-04-21,32.763072199999996,-117.130601,,,,,
Encontro North Park,"3001 University Ave #3001, San Diego, CA 92104, USA",(619) 291-1220,http://www.encontronorthpark.com/,Monday: 2:30 – 5:00 PM | Tuesday: 2:30 – 5:00 PM | Wednesday: 2:30 – 5:00 PM | Thursday: 2:30 – 5:00 PM | Friday: 2:30 – 5:00 PM | Saturday: Closed | Sunday: Closed,Monday: 11:00 AM – 9:00 PM | Tuesday: 11:00 AM – 9:00 PM | Wednesday: 11:00 AM – 9:00 PM | Thursday: 11:00 AM – 9:00 PM | Friday: 11:00 AM – 10:00 PM | Saturday: 10:00 AM – 10:00 PM | Sunday: 10:00 AM – 9:00 PM,4.2,684,PRICE_LEVEL_MODERATE,Google Places API (Happy Hours),2026-04-21,32.7482039,-117.1299095,,,,,
Deckman's NORTH Park at 3131,"3131 University Ave, San Diego, CA 92104, USA",(619) 735-3761,https://www.the3131.com/,Monday: 5:00 – 6:30 PM | Tuesday: 5:00 – 6:30 PM | Wednesday: 5:00 – 6:30 PM | Thursday: 5:00 – 6:30 PM | Friday: 5:00 – 6:30 PM | Saturday: 5:00 – 6:30 PM | Sunday: 5:00 – 6:30 PM,Monday: 5:00 – 9:00 PM | Tuesday: 5:00 – 9:00 PM | Wednesday: 5:00 – 9:00 PM | Thursday: 5:00 – 9:00 PM | Friday: 5:00 – 9:00 PM | Saturday: 5:00 – 9:00 PM | Sunday: 5:00 – 9:00 PM,4.5,163,,Google Places API (Happy Hours),2026-04-21,32.7482069,-117.1265026,,,,,
Whiskers & Wine Cat Cafe,"2856 Adams Ave, San Diego, CA 92116, USA",(619) 837-2325,http://www.whiskersandwinebar.com/,,Monday: Closed | Tuesday: 4:00 – 8:15 PM | Wednesday: 4:00 – 8:15 PM | Thursday: 4:00 – 8:15 PM | Friday: 4:00 – 9:45 PM | Saturday: 10:00 AM – 9:45 PM | Sunday: 10:00 AM – 6:45 PM,4.9,422,,Google Places API,2026-04-21,32.763004699999996,-117.13230519999999,,,,,
Bully's East Prime Bistro Sports Bar,"2401 Camino del Rio S, San Diego, CA 92108, USA",(619) 291-2665,http://bullyseastsd.com/,Monday: 4:00 PM - 6:00 PM | Tuesday: 4:00 PM - 6:00 PM | Wednesday: 4:00 PM - 6:00 PM | Thursday: 4:00 PM - 6:00 PM | Friday: 4:00 PM - 6:00 PM | Saturday: Closed | Sunday: Closed,Monday: 11:00 AM – 9:00 PM | Tuesday: 11:00 AM – 9:00 PM | Wednesday: 11:00 AM – 9:00 PM | Thursday: 11:00 AM – 9:00 PM | Friday: 11:00 AM – 10:00 PM | Saturday: 9:00 AM – 10:00 PM | Sunday: 9:00 AM – 9:00 PM,4.3,1756,PRICE_LEVEL_MODERATE,"Website (AI parsed, high confidence)",2026-04-21,32.7676145,-117.1384803,,,,,
CinKuni (Italian & Japanese Cuisine),"3025 El Cajon Blvd, San Diego, CA 92104, USA",,http://cinkuni.com/,Monday: 5:00 – 6:30 PM | Tuesday: 5:00 – 6:30 PM | Wednesday: 5:00 – 6:30 PM | Thursday: 5:00 – 6:30 PM | Friday: 4:00 – 5:30 PM | Saturday: 4:00 – 5:30 PM | Sunday: 4:00 – 5:30 PM,Monday: 5:00 – 9:00 PM | Tuesday: 5:00 – 9:00 PM | Wednesday: 5:00 – 9:00 PM | Thursday: 5:00 – 9:00 PM | Friday: 4:00 – 10:00 PM | Saturday: 11:00 AM – 10:00 PM | Sunday: 11:00 AM – 9:00 PM,4.6,245,PRICE_LEVEL_MODERATE,Google Places API (Happy Hours),2026-04-21,32.754963599999996,-117.1295545,,,,,
Hopnonymous Brewing - Normal Heights,"3514 Adams Ave, San Diego, CA 92116, USA",(619) 847-4628,https://hopnonymousbrewing.com/locations/adams-ave/,,Monday: 3:00 – 9:00 PM | Tuesday: 1:00 – 9:00 PM | Wednesday: 1:00 – 9:00 PM | Thursday: 1:00 – 9:00 PM | Friday: 12:00 – 10:00 PM | Saturday: 12:00 – 10:00 PM | Sunday: 12:00 – 7:00 PM,4.8,34,,Google Places API,2026-04-21,32.7635164,-117.11693860000001,,,,,
Original 40 Brewing Company,"3117 University Ave, San Diego, CA 92104, USA",(619) 255-7380,http://www.original40brewing.com/,,Monday: 12:00 – 10:00 PM | Tuesday: 12:00 – 10:00 PM | Wednesday: 12:00 – 10:00 PM | Thursday: 12:00 PM – 12:00 AM | Friday: 12:00 PM – 12:00 AM | Saturday: 11:30 AM – 12:00 AM | Sunday: 11:30 AM – 10:00 PM,4.7,361,,Google Places API,2026-04-21,32.7483021,-117.12661320000001,,,,,
Nook and Pantry,"3043 University Ave, San Diego, CA 92104, USA",(619) 269-5776,https://nookandpantrysd.com/,,Monday: Closed | Tuesday: Closed | Wednesday: Closed | Thursday: 4:00 AM – 8:00 PM | Friday: 4:00 AM – 8:00 PM | Saturday: 10:00 AM – 6:00 PM | Sunday: 11:00 AM – 4:00 PM,4.6,98,,Google Places API,2026-04-21,32.7483559,-117.1286865,,,,,
Studio Stratton Inc.,"4714 Marlborough Dr, San Diego, CA 92116, USA",(858) 465-7708,https://studiostratton.com/?utm_source=google&utm_medium=organic&utm_campaign=google-business-profile,,Monday: 9:00 AM – 5:00 PM | Tuesday: 9:00 AM – 5:00 PM | Wednesday: 9:00 AM – 4:00 PM | Thursday: 9:00 AM – 5:00 PM | Friday: 9:00 AM – 4:00 PM | Saturday: Closed | Sunday: Closed,5,43,,Google Places API,2026-04-21,32.763663699999995,-117.10648609999998,,,,,
Edison Home Improvement,"3160 Camino del Rio S, San Diego, CA 92108, USA",(619) 993-2000,https://www.edisonhomeimprovement.com/,,Monday: 8:30 AM – 5:00 PM | Tuesday: 8:30 AM – 5:00 PM | Wednesday: 8:30 AM – 5:00 PM | Thursday: 8:30 AM – 5:00 PM | Friday: 8:30 AM – 5:00 PM | Saturday: Closed | Sunday: Closed,4.4,57,,Google Places API,2026-04-21,32.7740356,-117.1247748,,,,,
Val's Vegan Kitchen,"2611 El Cajon Blvd, San Diego, CA 92104, USA",(619) 432-1503,https://www.valsvegankitchen.com/,,Monday: 11:00 AM – 12:00 AM | Tuesday: 11:00 AM – 12:00 AM | Wednesday: 11:00 AM – 12:00 AM | Thursday: 11:00 AM – 10:00 PM | Friday: 11:00 AM – 12:00 AM | Saturday: 11:00 AM – 12:00 AM | Sunday: 11:00 AM – 12:00 AM,4.8,61,PRICE_LEVEL_MODERATE,Google Places API,2026-04-21,32.754922199999996,-117.13594729999998,,,,,
Empanada Kitchen,"2855 El Cajon Blvd Suite 3, San Diego, CA 92104, USA",(619) 228-9565,http://empanada-kitchen.com/,,Monday: 10:00 AM – 8:00 PM | Tuesday: 10:00 AM – 8:00 PM | Wednesday: 10:00 AM – 8:00 PM | Thursday: 10:00 AM – 9:00 PM | Friday: 10:00 AM – 9:00 PM | Saturday: 9:00 AM – 9:00 PM | Sunday: 9:00 AM – 6:00 PM,4.7,228,PRICE_LEVEL_INEXPENSIVE,Google Places API,2026-04-21,32.7549047,-117.1323498,,,,,
MC's Kitchen,"Ray Street &, N Park Way, San Diego, CA 92104, USA",(619) 438-0658,http://www.mcskitchen.com/,Monday: 3:00 PM - 6:00 PM | Tuesday: 3:00 PM - 6:00 PM | Wednesday: 3:00 PM - 6:00 PM | Thursday: 3:00 PM - 6:00 PM | Friday: 4:00 PM - 7:00 PM | Saturday: Closed | Sunday: Closed,Monday: Closed | Tuesday: Closed | Wednesday: Closed | Thursday: 3:00 – 7:30 PM | Friday: Closed | Saturday: Closed | Sunday: Closed,4.4,7,,"Website (AI parsed, high confidence)",2026-04-21,32.7473927,-117.1292302,,,,,
Tejedas' Peruvian Kitchen,"3864 Swift Ave, San Diego, CA 92104, USA",(619) 865-2813,https://www.facebook.com/profile.php?id=61566501492616,,Monday: 9:00 AM – 5:00 PM | Tuesday: 9:00 AM – 5:00 PM | Wednesday: Closed | Thursday: Closed | Friday: Closed | Saturday: Closed | Sunday: Closed,4.9,28,,Google Places API,2026-04-21,32.7491888,-117.11955329999999,,,,,
Panchita's Kitchen & Bakery,"3803 32nd St, San Diego, CA 92104, USA",(619) 255-5498,http://panchitasbakery.com/,Monday: 3:00 – 6:00 PM | Tuesday: 3:00 – 6:00 PM | Wednesday: 3:00 – 6:00 PM | Thursday: 3:00 – 6:00 PM | Friday: 3:00 – 6:00 PM | Saturday: 3:00 – 6:00 PM | Sunday: 3:00 – 6:00 PM,Monday: 7:30 AM – 2:00 PM | Tuesday: 7:30 AM – 2:00 PM | Wednesday: 7:30 AM – 2:00 PM | Thursday: 7:30 AM – 2:00 PM | Friday: 7:30 AM – 2:00 PM | Saturday: 7:30 AM – 2:00 PM | Sunday: 7:30 AM – 2:00 PM,4.4,704,PRICE_LEVEL_INEXPENSIVE,Google Places API (Happy Hours),2026-04-21,32.747551,-117.12476500000001,,,,,
Street Side Thai Kitchen,"3025 University Ave, San Diego, CA 92104, USA",(619) 228-9208,http://www.streetsidethaikitchensd.com/,,Monday: 11:00 AM – 11:00 PM | Tuesday: 9:30 AM – 11:00 PM | Wednesday: 9:30 AM – 11:00 PM | Thursday: 9:30 AM – 11:00 PM | Friday: 9:30 AM – 11:00 PM | Saturday: 10:00 AM – 11:00 PM | Sunday: 10:00 AM – 11:00 PM,4.3,370,PRICE_LEVEL_MODERATE,Google Places API,2026-04-21,32.7482861,-117.1294126,,,,,
Mastiff Kitchen at North Park Beer Co.,"3038 University Ave, San Diego, CA 92104, USA",(619) 255-2777,https://mastiffnorthpark.com/,,Monday: 3:00 – 9:15 PM | Tuesday: 12:00 – 9:15 PM | Wednesday: 12:00 – 9:15 PM | Thursday: 12:00 – 9:15 PM | Friday: 12:00 – 11:00 PM | Saturday: 12:00 – 11:00 PM | Sunday: 12:00 – 9:15 PM,4.2,90,PRICE_LEVEL_MODERATE,Google Places API,2026-04-21,32.7487249,-117.1291303,,,,,
