restaurant_name,address,phone_number,website_url,happy_hour_times,regular_hours,rating,review_count,price_level,source,freshness_date,latitude,longitude,cheapest_drink,cheapest_drink_price,cheapest_food,cheapest_food_price,menu_summary
The Rabbit Hole,"3377 Adams Ave, San Diego, CA 92116, USA",(619) 255-4653,http://rabbitholesd.com/,Monday: 04:00 PM - 06:00 PM | Tuesday: 04:00 PM - 06:00 PM | Wednesday: 04:00 PM - 06:00 PM | Thursday: 04:00 PM - 06:00 PM | Friday: 04:00 PM - 06:00 PM | Saturday: Closed | Sunday: Closed,Monday: 12:00 – 11:00 PM | Tuesday: 12:00 – 11:00 PM | Wednesday: 12:00 – 11:00 PM | Thursday: 12:00 – 11:00 PM | Friday: 12:00 PM – 1:00 AM | Saturday: 10:00 AM – 1:00 AM | Sunday: 10:00 AM – 11:00 PM,4.3,1377,PRICE_LEVEL_MODERATE,"Website (AI parsed, high confidence)",2026-04-21,32.7631057,-117.1210771,,,,,
The Ould Sod,"3373 Adams Ave, San Diego, CA 92116, USA",(619) 284-6594,http://www.theouldsod.com/,Monday: 3:00 – 6:00 PM | Tuesday: 3:00 – 6:00 PM | Wednesday: 3:00 – 6:00 PM | Thursday: 3:00 – 6:00 PM | Friday: 3:00 – 6:00 PM | Saturday: 10:00 AM – 4:00 PM | Sunday: 10:00 AM – 4:00 PM,Monday: 2:00 PM – 2:00 AM | Tuesday: 2:00 PM – 2:00 AM | Wednesday: 2:00 PM – 2:00 AM | Thursday: 2:00 PM – 2:00 AM | Friday: 2:00 PM – 2:00 AM | Saturday: 10:00 AM – 2:00 AM | Sunday: 10:00 AM – 2:00 AM,4.6,666,PRICE_LEVEL_INEXPENSIVE,Google Places API (Happy Hours),2026-04-21,32.763031,-117.121231,,,,,
The Vibe,"3250 Adams Ave Ste 101, San Diego, CA 92116, USA",(619) 901-2281,https://thevibeco.com/,,Monday: 8:00 AM – 2:00 PM | Tuesday: 8:00 AM – 2:00 PM | Wednesday: 8:00 AM – 2:00 PM | Thursday: 8:00 AM – 2:00 PM | Friday: 8:00 AM – 2:00 PM | Saturday: 8:00 AM – 3:00 PM | Sunday: 8:00 AM – 3:00 PM,4.4,381,PRICE_LEVEL_MODERATE,Google Places API,2026-04-21,32.763660699999996,-117.1236181,,,,,
Madi,"3737 Adams Ave, San Diego, CA 92116, USA",(619) 915-5522,http://brunchlikemadi.com/,,Monday: 8:30 AM – 2:00 PM | Tuesday: 8:30 AM – 2:00 PM | Wednesday: 8:30 AM – 2:00 PM | Thursday: 8:30 AM – 2:00 PM | Friday: 8:00 AM – 2:00 PM | Saturday: 8:00 AM – 2:00 PM | Sunday: 8:00 AM – 2:00 PM,4.8,2592,PRICE_LEVEL_MODERATE,Google Places API,2026-04-21,32.7631116,-117.11245740000001,,,,,
Rolberto's Taco Shop,"3462 Adams Ave, San Diego, CA 92116, USA",(619) 563-0438,https://www.orderrolbertos.com/,,Monday: 6:00 AM – 3:00 AM | Tuesday: 6:00 AM – 3:00 AM | Wednesday: 6:00 AM – 3:00 AM | Thursday: 6:00 AM – 3:00 AM | Friday: 6:00 AM – 3:00 AM | Saturday: 6:00 AM – 3:00 AM | Sunday: 6:00 AM – 3:00 AM,4.3,720,PRICE_LEVEL_INEXPENSIVE,Google Places API,2026-04-21,32.7635954,-117.1186605,,,,,
Blind Lady Ale House,"3416 Adams Ave, San Diego, CA 92116, USA",(619) 255-2491,http://www.blindladyalehouse.com/,,Monday: 5:00 – 11:00 PM | Tuesday: Closed | Wednesday: 5:00 – 11:00 PM | Thursday: 5:00 – 11:00 PM | Friday: 3:00 PM – 12:00 AM | Saturday: 12:00 PM – 12:00 AM | Sunday: 12:00 – 11:00 PM,4.7,1464,PRICE_LEVEL_MODERATE,Google Places API,2026-04-21,32.7634973,-117.1202861,,,,,
Bosforo,"3201 Adams Ave, San Diego, CA 92116, USA",(619) 634-9646,https://bosforosd.com/,,Monday: Closed | Tuesday: 5:00 – 9:30 PM | Wednesday: 5:00 – 9:30 PM | Thursday: 5:00 – 9:30 PM | Friday: 5:00 – 10:00 PM | Saturday: 5:00 – 10:00 PM | Sunday: 5:00 – 9:00 PM,4.6,364,,Google Places API,2026-04-21,32.7631797,-117.1247748,,,,,
Dos Palmas Cafe - Normal Heights,"3562 Adams Ave, San Diego, CA 92116, USA",(619) 496-4343,https://www.dospalmascafe.com/,,Monday: 7:00 AM – 2:00 PM | Tuesday: 7:00 AM – 2:00 PM | Wednesday: 7:00 AM – 2:00 PM | Thursday: 7:00 AM – 2:00 PM | Friday: 7:00 AM – 2:00 PM | Saturday: 7:00 AM – 2:00 PM | Sunday: 7:00 AM – 2:00 PM,4.9,590,PRICE_LEVEL_INEXPENSIVE,Google Places API,2026-04-21,32.7635282,-117.11595919999999,,,,,
DAO Fu,"3332 Adams Ave, San Diego, CA 92116, USA",(619) 281-6888,https://daofu.has.restaurant/,,"Monday: Closed | Tuesday: 11:00 AM – 2:00 PM, 5:00 – 8:30 PM | Wednesday: 11:00 AM – 2:00 PM, 5:00 – 8:30 PM | Thursday: 11:00 AM – 2:00 PM, 5:00 – 8:30 PM | Friday: 11:00 AM – 2:00 PM, 5:00 – 9:00 PM | Saturday: 11:00 AM – 2:00 PM, 5:00 – 9:00 PM | Sunday: 11:00 AM – 2:00 PM, 5:00 – 8:30 PM",4.7,565,PRICE_LEVEL_INEXPENSIVE,Google Places API,2026-04-21,32.763531799999996,-117.12206759999998,,,,,
Brothers Mexican Restaurant,"3531 39 Adams Ave, San Diego, CA 92116, USA",(619) 228-9673,https://www.clover.com/online-ordering/brothers-mexican-restau-san-diego,,Monday: 8:00 AM – 10:00 PM | Tuesday: 8:00 AM – 10:00 PM | Wednesday: 8:00 AM – 10:00 PM | Thursday: 8:00 AM – 10:00 PM | Friday: 8:00 AM – 10:00 PM | Saturday: 8:00 AM – 10:00 PM | Sunday: 8:00 AM – 10:00 PM,4.4,196,PRICE_LEVEL_INEXPENSIVE,Google Places API,2026-04-21,32.7631328,-117.1166881,,,,,
Nozaru Ramen Bar,"3375 Adams Ave, San Diego, CA 92116, USA",(619) 564-7183,http://nozaruramen.com/,Monday: 4:00 – 6:00 PM | Tuesday: 4:00 – 6:00 PM | Wednesday: 4:00 – 6:00 PM | Thursday: 4:00 – 6:00 PM | Friday: 4:00 – 6:00 PM | Saturday: 4:00 – 6:00 PM | Sunday: 4:00 – 6:00 PM,Monday: 4:00 – 9:00 PM | Tuesday: 4:00 – 9:00 PM | Wednesday: 4:00 – 9:00 PM | Thursday: 4:00 – 9:00 PM | Friday: 12:00 – 10:00 PM | Saturday: 12:00 – 10:00 PM | Sunday: 12:00 – 9:00 PM,4.5,373,PRICE_LEVEL_MODERATE,Google Places API (Happy Hours),2026-04-21,32.7631174,-117.12118999999998,,,,,
Sahara on Adams,"3355 Adams Ave, San Diego, CA 92116, USA",(619) 380-2292,http://www.saharaonadams.com/,,Monday: 11:00 AM – 9:00 PM | Tuesday: 11:00 AM – 9:00 PM | Wednesday: 11:00 AM – 9:00 PM | Thursday: 11:00 AM – 9:00 PM | Friday: 11:00 AM – 10:00 PM | Saturday: 11:00 AM – 10:00 PM | Sunday: 11:00 AM – 8:00 PM,4.5,160,PRICE_LEVEL_MODERATE,Google Places API,2026-04-21,32.7632252,-117.1215399,,,,,
White Rice,"3586 Adams Ave Suite 100, San Diego, CA 92116, USA",(619) 255-1972,https://www.ricebowlsforall.com/,,Monday: 11:00 AM – 7:00 PM | Tuesday: 11:00 AM – 7:00 PM | Wednesday: 11:00 AM – 7:00 PM | Thursday: 11:00 AM – 7:00 PM | Friday: 11:00 AM – 8:00 PM | Saturday: 11:00 AM – 8:00 PM | Sunday: 11:00 AM – 7:00 PM,4.2,212,PRICE_LEVEL_MODERATE,Google Places API,2026-04-21,32.763556799999996,-117.1155513,,,,,
Jyoti-Bihanga Vegan & Vegetarian Restaurant,"3351 Adams Ave, San Diego, CA 92116, USA",(619) 282-4116,http://www.jyotibihanga.com/,,Monday: 11:30 AM – 8:30 PM | Tuesday: 11:30 AM – 8:30 PM | Wednesday: 11:30 AM – 3:00 PM | Thursday: 11:30 AM – 8:30 PM | Friday: 11:30 AM – 8:30 PM | Saturday: 11:30 AM – 8:30 PM | Sunday: Closed,4.8,533,PRICE_LEVEL_INEXPENSIVE,Google Places API,2026-04-21,32.763206,-117.12159299999998,,,,,
Thai Joint,"3456 Adams Ave, San Diego, CA 92116, USA",(619) 564-6659,http://thai-joint.com/,,"Monday: 11:30 AM – 2:30 PM, 4:00 – 9:00 PM | Tuesday: 11:30 AM – 2:30 PM, 4:00 – 9:00 PM | Wednesday: 11:30 AM – 2:30 PM, 4:00 – 9:00 PM | Thursday: 11:30 AM – 2:30 PM, 4:00 – 9:00 PM | Friday: 11:00 AM – 2:30 PM, 4:00 – 9:00 PM | Saturday: 11:00 AM – 9:00 PM | Sunday: 11:00 AM – 9:00 PM",4.4,232,PRICE_LEVEL_MODERATE,Google Places API,2026-04-21,32.763594,-117.11881760000001,,,,,
Zia Gourmet Pizza,"3311 Adams Ave A, San Diego, CA 92116, USA",(619) 284-4320,http://www.ziagourmetpizza.com/,,Monday: 5:00 – 11:00 PM | Tuesday: 5:00 – 11:00 PM | Wednesday: 5:00 – 11:00 PM | Thursday: 5:00 – 11:00 PM | Friday: 5:00 – 11:00 PM | Saturday: 5:00 – 11:00 PM | Sunday: 5:00 – 11:00 PM,4.8,634,PRICE_LEVEL_INEXPENSIVE,Google Places API,2026-04-21,32.7632222,-117.12261939999998,,,,,
SoCal Sushi,"3454 Adams Ave, San Diego, CA 92116, USA",(619) 255-7388,https://socalsushigo.site/,,Monday: 4:00 – 9:00 PM | Tuesday: 4:00 – 9:00 PM | Wednesday: 4:00 – 9:00 PM | Thursday: 4:00 – 9:00 PM | Friday: 12:00 – 9:00 PM | Saturday: 12:00 – 9:00 PM | Sunday: Closed,4.8,244,PRICE_LEVEL_MODERATE,Google Places API,2026-04-21,32.763593,-117.11882700000001,,,,,
Mauricio's #1 Mexican food,"3200 Adams Ave #102, San Diego, CA 92116, USA",(619) 285-1362,https://mauricios1mexicanfood.shop/,,Monday: 6:30 AM – 10:00 PM | Tuesday: 6:30 AM – 10:00 PM | Wednesday: 6:30 AM – 10:00 PM | Thursday: 6:30 AM – 10:00 PM | Friday: 6:30 AM – 10:00 PM | Saturday: 6:30 AM – 10:00 PM | Sunday: 6:30 AM – 10:00 PM,4.5,691,PRICE_LEVEL_INEXPENSIVE,Google Places API,2026-04-21,32.7636111,-117.12472220000001,,,,,
Savio's Pizza,"3446 Adams Ave, San Diego, CA 92116, USA",(619) 282-2211,http://ordersaviospizza.com/,,Monday: 10:00 AM – 11:00 PM | Tuesday: Closed | Wednesday: 10:00 AM – 11:00 PM | Thursday: 10:00 AM – 10:00 PM | Friday: 10:00 AM – 12:00 AM | Saturday: 10:00 AM – 12:00 AM | Sunday: 10:00 AM – 9:00 PM,4.5,171,PRICE_LEVEL_MODERATE,Google Places API,2026-04-21,32.7635253,-117.1190241,,,,,
Sycamore Den,"3391 Adams Ave, San Diego, CA 92116, USA",(619) 259-0045,http://www.sycamoreden.com/,Monday: 5:00 PM - 7:00 PM | Tuesday: 5:00 PM - 7:00 PM | Wednesday: 5:00 PM - 7:00 PM | Thursday: 5:00 PM - 7:00 PM | Friday: 2:00 PM - 7:00 PM | Saturday: 2:00 PM - 7:00 PM | Sunday: 2:00 PM - 7:00 PM,Monday: 5:00 PM – 2:00 AM | Tuesday: 5:00 PM – 2:00 AM | Wednesday: 5:00 PM – 2:00 AM | Thursday: 5:00 PM – 2:00 AM | Friday: 2:00 PM – 2:00 AM | Saturday: 2:00 PM – 2:00 AM | Sunday: 2:00 PM – 2:00 AM,4.4,392,PRICE_LEVEL_MODERATE,"Website (AI parsed, high confidence)",2026-04-21,32.76324170000001,-117.12089440000001,,,,,
Rosie O'Grady's,"3402 Adams Ave, San Diego, CA 92116, USA",(619) 284-7666,http://rosieogradyssd.com/,Monday: 04:00 PM-07:00 PM | Tuesday: 04:00 PM-07:00 PM | Wednesday: 04:00 PM-07:00 PM | Thursday: 04:00 PM-07:00 PM | Friday: 04:00 PM-07:00 PM | Saturday: Closed | Sunday: Closed,Monday: 11:00 AM – 2:00 AM | Tuesday: 11:00 AM – 2:00 AM | Wednesday: 11:00 AM – 2:00 AM | Thursday: 11:00 AM – 2:00 AM | Friday: 11:00 AM – 2:00 AM | Saturday: 11:00 AM – 2:00 AM | Sunday: 10:00 AM – 2:00 AM,4.4,461,PRICE_LEVEL_INEXPENSIVE,"Website (AI parsed, high confidence)",2026-04-21,32.7635404,-117.12053890000001,,,,,
Triple Crown Pub,"3221 Adams Ave, San Diego, CA 92116, USA",,,,Monday: 5:00 PM – 12:00 AM | Tuesday: 5:00 PM – 1:30 AM | Wednesday: 5:00 PM – 1:30 AM | Thursday: 5:00 PM – 1:30 AM | Friday: 5:00 PM – 1:30 AM | Saturday: 3:00 PM – 1:30 AM | Sunday: 3:00 PM – 1:30 AM,4.4,430,PRICE_LEVEL_INEXPENSIVE,Google Places API,2026-04-21,32.763189,-117.12442870000001,,,,,
Cleopatra's Lounge,"3311 Adams Ave A, San Diego, CA 92116, USA",(619) 955-7559,https://cleopatrahookah2014.com/,Monday: 3:00 PM - 7:00 PM | Tuesday: 3:00 PM - 7:00 PM | Wednesday: 3:00 PM - 7:00 PM | Thursday: 3:00 PM - 7:00 PM | Friday: 3:00 PM - 7:00 PM | Saturday: 3:00 PM - 7:00 PM | Sunday: 3:00 PM - 7:00 PM,Monday: 3:00 PM – 2:00 AM | Tuesday: 3:00 PM – 2:00 AM | Wednesday: 3:00 PM – 2:00 AM | Thursday: 3:00 PM – 2:00 AM | Friday: 3:00 PM – 2:00 AM | Saturday: 3:00 PM – 2:00 AM | Sunday: 3:00 PM – 2:00 AM,4.6,73,,"Website (AI parsed, high confidence)",2026-04-21,32.7631525,-117.122517,,,,,
Hopnonymous Brewing - Normal Heights,"3514 Adams Ave, San Diego, CA 92116, USA",(619) 847-4628,https://hopnonymousbrewing.com/locations/adams-ave/,,Monday: 3:00 – 9:00 PM | Tuesday: 1:00 – 9:00 PM | Wednesday: 1:00 – 9:00 PM | Thursday: 1:00 – 9:00 PM | Friday: 12:00 – 10:00 PM | Saturday: 12:00 – 10:00 PM | Sunday: 12:00 – 7:00 PM,4.8,34,,Google Places API,2026-04-21,32.7635164,-117.11693860000001,,,,,
