restaurant_name,address,phone_number,website_url,happy_hour_times,regular_hours,rating,review_count,price_level,source,freshness_date,latitude,longitude,cheapest_drink,cheapest_drink_price,cheapest_food,cheapest_food_price,menu_summary
The Rabbit Hole,"3377 Adams Ave, San Diego, CA 92116, USA",(619) 255-4653,http://rabbitholesd.com/,Monday: 04:00 PM - 06:00 PM | Tuesday: 04:00 PM - 06:00 PM | Wednesday: 04:00 PM - 06:00 PM | Thursday: 04:00 PM - 06:00 PM | Friday: 04:00 PM - 06:00 PM | Saturday: Closed | Sunday: Closed,Monday: 12:00 – 11:00 PM | Tuesday: 12:00 – 11:00 PM | Wednesday: 12:00 – 11:00 PM | Thursday: 12:00 – 11:00 PM | Friday: 12:00 PM – 1:00 AM | Saturday: 10:00 AM – 1:00 AM | Sunday: 10:00 AM – 11:00 PM,4.3,1377,PRICE_LEVEL_MODERATE,Website (AI parsed),2026-04-21,32.7631057,-117.1210771,,,,,
Rudford's Restaurant,"2900 El Cajon Blvd, San Diego, CA 92104, USA",(619) 282-8423,http://www.rudfords.com/,,Monday: Open 24 hours | Tuesday: Open 24 hours | Wednesday: Open 24 hours | Thursday: Open 24 hours | Friday: Open 24 hours | Saturday: Open 24 hours | Sunday: Open 24 hours,4.4,4724,PRICE_LEVEL_INEXPENSIVE,Google Places API,2026-04-21,32.7556258,-117.13123399999999,,,,,
Lazy Dog Restaurant & Bar,"1202 Camino Del Rio N, San Diego, CA 92108, USA",(619) 481-6191,https://lazydogrestaurants.com/pages/san-diego-ca-mission-valley,Monday: 3:00 – 6:00 PM | Tuesday: 3:00 – 6:00 PM | Wednesday: 3:00 – 6:00 PM | Thursday: 3:00 – 6:00 PM | Friday: 3:00 – 6:00 PM | Saturday: Closed | Sunday: 9:00 PM – 12:00 AM,Monday: 11:00 AM – 12:00 AM | Tuesday: 11:00 AM – 12:00 AM | Wednesday: 11:00 AM – 12:00 AM | Thursday: 11:00 AM – 12:00 AM | Friday: 11:00 AM – 12:00 AM | Saturday: 10:00 AM – 12:00 AM | Sunday: 10:00 AM – 12:00 AM,4.4,4754,PRICE_LEVEL_MODERATE,Google Places API (Happy Hours),2026-04-21,32.7664841,-117.1542527,,,,,
The Ould Sod,"3373 Adams Ave, San Diego, CA 92116, USA",(619) 284-6594,http://www.theouldsod.com/,Monday: 3:00 – 6:00 PM | Tuesday: 3:00 – 6:00 PM | Wednesday: 3:00 – 6:00 PM | Thursday: 3:00 – 6:00 PM | Friday: 3:00 – 6:00 PM | Saturday: 10:00 AM – 4:00 PM | Sunday: 10:00 AM – 4:00 PM,Monday: 2:00 PM – 2:00 AM | Tuesday: 2:00 PM – 2:00 AM | Wednesday: 2:00 PM – 2:00 AM | Thursday: 2:00 PM – 2:00 AM | Friday: 2:00 PM – 2:00 AM | Saturday: 10:00 AM – 2:00 AM | Sunday: 10:00 AM – 2:00 AM,4.6,666,PRICE_LEVEL_INEXPENSIVE,Google Places API (Happy Hours),2026-04-21,32.763031,-117.121231,,,,,
Zia Gourmet Pizza,"3311 Adams Ave A, San Diego, CA 92116, USA",(619) 284-4320,http://www.ziagourmetpizza.com/,,Monday: 5:00 – 11:00 PM | Tuesday: 5:00 – 11:00 PM | Wednesday: 5:00 – 11:00 PM | Thursday: 5:00 – 11:00 PM | Friday: 5:00 – 11:00 PM | Saturday: 5:00 – 11:00 PM | Sunday: 5:00 – 11:00 PM,4.8,634,PRICE_LEVEL_INEXPENSIVE,Google Places API,2026-04-21,32.7632222,-117.12261939999998,,,,,
The Vibe,"3250 Adams Ave Ste 101, San Diego, CA 92116, USA",(619) 901-2281,https://thevibeco.com/,,Monday: 8:00 AM – 2:00 PM | Tuesday: 8:00 AM – 2:00 PM | Wednesday: 8:00 AM – 2:00 PM | Thursday: 8:00 AM – 2:00 PM | Friday: 8:00 AM – 2:00 PM | Saturday: 8:00 AM – 3:00 PM | Sunday: 8:00 AM – 3:00 PM,4.4,381,PRICE_LEVEL_MODERATE,Google Places API,2026-04-21,32.763660699999996,-117.1236181,,,,,
Madi,"3737 Adams Ave, San Diego, CA 92116, USA",(619) 915-5522,http://brunchlikemadi.com/,,Monday: 8:30 AM – 2:00 PM | Tuesday: 8:30 AM – 2:00 PM | Wednesday: 8:30 AM – 2:00 PM | Thursday: 8:30 AM – 2:00 PM | Friday: 8:00 AM – 2:00 PM | Saturday: 8:00 AM – 2:00 PM | Sunday: 8:00 AM – 2:00 PM,4.8,2592,PRICE_LEVEL_MODERATE,Google Places API,2026-04-21,32.7631116,-117.11245740000001,,,,,
Brothers Mexican Restaurant,"3531 39 Adams Ave, San Diego, CA 92116, USA",(619) 228-9673,https://www.clover.com/online-ordering/brothers-mexican-restau-san-diego,,Monday: 8:00 AM – 10:00 PM | Tuesday: 8:00 AM – 10:00 PM | Wednesday: 8:00 AM – 10:00 PM | Thursday: 8:00 AM – 10:00 PM | Friday: 8:00 AM – 10:00 PM | Saturday: 8:00 AM – 10:00 PM | Sunday: 8:00 AM – 10:00 PM,4.4,196,PRICE_LEVEL_INEXPENSIVE,Google Places API,2026-04-21,32.7631328,-117.1166881,,,,,
So Saap,"4134 University Ave, San Diego, CA 92105, USA",(619) 539-7635,https://sosaap.com/?utm_source=google,,Monday: 10:30 AM – 11:00 PM | Tuesday: 10:30 AM – 11:00 PM | Wednesday: 10:30 AM – 11:00 PM | Thursday: 10:30 AM – 11:00 PM | Friday: 10:30 AM – 12:00 AM | Saturday: 10:30 AM – 12:00 AM | Sunday: 10:30 AM – 11:00 PM,4.4,476,PRICE_LEVEL_MODERATE,Google Places API,2026-04-21,32.7504451,-117.10611519999999,,,,,
Venice Pizza House Since 1954,"3333 El Cajon Blvd, San Diego, CA 92104, USA",(619) 283-2333,https://venicepizzahousesd.com/,Monday: 3:00 PM - 5:00 PM | Tuesday: 3:00 PM - 5:00 PM | Wednesday: 3:00 PM - 5:00 PM | Thursday: 3:00 PM - 5:00 PM | Friday: 3:00 PM - 5:00 PM | Saturday: 3:00 PM - 5:00 PM | Sunday: 3:00 PM - 5:00 PM,Monday: 11:00 AM – 10:00 PM | Tuesday: 11:00 AM – 10:00 PM | Wednesday: 11:00 AM – 10:00 PM | Thursday: 11:00 AM – 10:00 PM | Friday: 11:00 AM – 10:00 PM | Saturday: 11:00 AM – 10:00 PM | Sunday: 11:00 AM – 10:00 PM,4.6,1035,PRICE_LEVEL_MODERATE,Website (AI parsed),2026-04-21,32.7550212,-117.12162149999997,,,,,
Trattoria da Sofia,"4055 Adams Ave, San Diego, CA 92116, USA",(619) 228-9094,https://trattoriadasofia.com/,Monday: 4:00 PM - 5:00 PM | Tuesday: 4:00 PM - 5:00 PM | Wednesday: 4:00 PM - 5:00 PM | Thursday: 4:00 PM - 5:00 PM | Friday: 4:00 PM - 5:00 PM | Saturday: 4:00 PM - 5:00 PM | Sunday: 4:00 PM - 5:00 PM,Monday: 4:00 – 9:00 PM | Tuesday: 4:00 – 9:00 PM | Wednesday: 4:00 – 9:00 PM | Thursday: 4:00 – 9:00 PM | Friday: 4:00 – 10:00 PM | Saturday: 4:00 – 10:00 PM | Sunday: 4:00 – 9:00 PM,4.6,252,,Website (AI parsed),2026-04-21,32.7630625,-117.1081469,,,,,
Rolberto's Taco Shop,"3462 Adams Ave, San Diego, CA 92116, USA",(619) 563-0438,https://www.orderrolbertos.com/,,Monday: 6:00 AM – 3:00 AM | Tuesday: 6:00 AM – 3:00 AM | Wednesday: 6:00 AM – 3:00 AM | Thursday: 6:00 AM – 3:00 AM | Friday: 6:00 AM – 3:00 AM | Saturday: 6:00 AM – 3:00 AM | Sunday: 6:00 AM – 3:00 AM,4.3,720,PRICE_LEVEL_INEXPENSIVE,Google Places API,2026-04-21,32.7635954,-117.1186605,,,,,
Street Side Thai Kitchen,"3025 University Ave, San Diego, CA 92104, USA",(619) 228-9208,http://www.streetsidethaikitchensd.com/,,Monday: 11:00 AM – 11:00 PM | Tuesday: 9:30 AM – 11:00 PM | Wednesday: 9:30 AM – 11:00 PM | Thursday: 9:30 AM – 11:00 PM | Friday: 9:30 AM – 11:00 PM | Saturday: 10:00 AM – 11:00 PM | Sunday: 10:00 AM – 11:00 PM,4.3,370,PRICE_LEVEL_MODERATE,Google Places API,2026-04-21,32.7482861,-117.1294126,,,,,
Et Voilà! French Bistro,"3015 Adams Ave, San Diego, CA 92116, USA",(619) 209-7759,http://etvoilabistro.com/,Monday: Closed | Tuesday: 4:30 – 7:00 PM | Wednesday: 4:30 – 7:00 PM | Thursday: 4:30 – 7:00 PM | Friday: 4:30 – 6:00 PM | Saturday: 4:30 – 6:00 PM | Sunday: 4:30 – 7:00 PM,Monday: Closed | Tuesday: 4:30 – 9:00 PM | Wednesday: 4:30 – 9:00 PM | Thursday: 4:30 – 9:00 PM | Friday: 4:30 – 9:30 PM | Saturday: 4:30 – 9:30 PM | Sunday: 4:30 – 8:00 PM,4.7,811,PRICE_LEVEL_MODERATE,Google Places API (Happy Hours),2026-04-21,32.76275,-117.12986670000001,,,,,
Urban Plates,"1620 Camino De La Reina Building E, San Diego, CA 92108, USA",(619) 877-0026,https://urbanplates.com/,,Monday: 11:00 AM – 9:15 PM | Tuesday: 11:00 AM – 9:15 PM | Wednesday: 11:00 AM – 9:15 PM | Thursday: 11:00 AM – 9:15 PM | Friday: 11:00 AM – 9:45 PM | Saturday: 11:00 AM – 9:45 PM | Sunday: 11:00 AM – 9:15 PM,4.9,1983,PRICE_LEVEL_MODERATE,Google Places API,2026-04-21,32.7708356,-117.14973819999999,,,,,
Blind Lady Ale House,"3416 Adams Ave, San Diego, CA 92116, USA",(619) 255-2491,http://www.blindladyalehouse.com/,Monday: 5:00 PM - 7:00 PM | Tuesday: 5:00 PM - 7:00 PM | Wednesday: 5:00 PM - 7:00 PM | Thursday: 5:00 PM - 7:00 PM | Friday: 12:00 PM - 6:00 PM | Saturday: 12:00 PM - 6:00 PM | Sunday: 12:00 PM - 6:00 PM,Monday: 5:00 – 11:00 PM | Tuesday: Closed | Wednesday: 5:00 – 11:00 PM | Thursday: 5:00 – 11:00 PM | Friday: 3:00 PM – 12:00 AM | Saturday: 12:00 PM – 12:00 AM | Sunday: 12:00 – 11:00 PM,4.7,1464,PRICE_LEVEL_MODERATE,Website (AI parsed),2026-04-21,32.7634973,-117.1202861,,,,,
Mauricio's #1 Mexican food,"3200 Adams Ave #102, San Diego, CA 92116, USA",(619) 285-1362,https://mauricios1mexicanfood.shop/,,Monday: 6:30 AM – 10:00 PM | Tuesday: 6:30 AM – 10:00 PM | Wednesday: 6:30 AM – 10:00 PM | Thursday: 6:30 AM – 10:00 PM | Friday: 6:30 AM – 10:00 PM | Saturday: 6:30 AM – 10:00 PM | Sunday: 6:30 AM – 10:00 PM,4.5,691,PRICE_LEVEL_INEXPENSIVE,Google Places API,2026-04-21,32.7636111,-117.12472220000001,,,,,
Church's Texas Chicken,"3495 El Cajon Blvd, San Diego, CA 92104, USA",(619) 584-4665,https://locations.churchs.com/ca/san-diego/3495-el-cajon-boulevard,,Monday: 9:00 AM – 11:00 PM | Tuesday: 9:00 AM – 11:00 PM | Wednesday: 9:00 AM – 11:00 PM | Thursday: 9:00 AM – 11:00 PM | Friday: 9:00 AM – 11:00 PM | Saturday: 9:00 AM – 11:00 PM | Sunday: 9:00 AM – 11:00 PM,3.8,1377,PRICE_LEVEL_INEXPENSIVE,Google Places API,2026-04-21,32.7549989,-117.1181953,,,,,
Madison,"4622 Park Blvd, San Diego, CA 92116, USA",(619) 269-6566,http://www.madisononpark.com/,Monday: Closed | Tuesday: 4:00 – 6:00 PM | Wednesday: 4:00 – 6:00 PM | Thursday: 4:00 – 6:00 PM | Friday: 4:00 – 6:00 PM | Saturday: 4:00 – 6:00 PM | Sunday: 4:00 – 6:00 PM,Monday: Closed | Tuesday: 5:00 – 8:30 PM | Wednesday: 5:00 – 8:30 PM | Thursday: 5:00 – 8:30 PM | Friday: 5:00 – 9:30 PM | Saturday: 5:00 – 9:30 PM | Sunday: 5:00 – 8:30 PM,4.5,1400,PRICE_LEVEL_MODERATE,Google Places API (Happy Hours),2026-04-21,32.7614508,-117.14645650000001,,,,,
The Hangout Restaurant and Bar,"2736 Adams Ave, San Diego, CA 92116, USA",(619) 640-2121,http://www.thehangoutrestaurantandbar.com/,Monday: Closed | Tuesday: Closed | Wednesday: Closed | Thursday: 3:00 PM - 6:00 PM | Friday: 3:00 PM - 6:00 PM | Saturday: 3:00 PM - 6:00 PM | Sunday: 3:00 PM - 6:00 PM,Monday: 8:00 AM – 3:00 PM | Tuesday: 8:00 AM – 3:00 PM | Wednesday: 8:00 AM – 3:00 PM | Thursday: 8:00 AM – 10:00 PM | Friday: 8:00 AM – 10:00 PM | Saturday: 8:00 AM – 10:00 PM | Sunday: 8:00 AM – 10:00 PM,4.7,49,,Website (AI parsed),2026-04-21,32.7632105,-117.134357,,,,,
Bosforo,"3201 Adams Ave, San Diego, CA 92116, USA",(619) 634-9646,https://bosforosd.com/,,Monday: Closed | Tuesday: 5:00 – 9:30 PM | Wednesday: 5:00 – 9:30 PM | Thursday: 5:00 – 9:30 PM | Friday: 5:00 – 10:00 PM | Saturday: 5:00 – 10:00 PM | Sunday: 5:00 – 9:00 PM,4.6,364,,Google Places API,2026-04-21,32.7631797,-117.1247748,,,,,
Bleu Bohème,"4090 Adams Ave, San Diego, CA 92116, USA",(619) 255-4167,http://www.bleuboheme.com/,Monday: Closed | Tuesday: Closed | Wednesday: Closed | Thursday: Closed | Friday: Closed | Saturday: Closed | Sunday: Closed,Monday: Closed | Tuesday: 5:00 – 8:00 PM | Wednesday: 5:00 – 8:00 PM | Thursday: 5:00 – 8:00 PM | Friday: 5:00 – 9:00 PM | Saturday: 5:00 – 9:00 PM | Sunday: Closed,4.5,655,PRICE_LEVEL_MODERATE,Website (AI parsed),2026-04-21,32.7634548,-117.1075274,,,,,
Fortuna Ristorante Italiano,"4207 Park Blvd, San Diego, CA 92103, USA",(619) 310-5739,https://fortunasandiego.com/,,Monday: 4:00 – 9:30 PM | Tuesday: 4:00 – 9:30 PM | Wednesday: 4:00 – 9:30 PM | Thursday: 4:00 – 9:30 PM | Friday: 4:00 – 10:00 PM | Saturday: 11:30 AM – 10:00 PM | Sunday: 11:30 AM – 9:00 PM,4.9,297,,Google Places API,2026-04-21,32.7542435,-117.1460298,,,,,
Brother's Mexican Restaurant,"4006 30th St, San Diego, CA 92104, USA",(619) 563-5647,https://www.clover.com/online-ordering/brothers-mexican-food-re-san-diego,,Monday: 8:00 AM – 10:00 PM | Tuesday: 8:00 AM – 10:00 PM | Wednesday: 8:00 AM – 10:00 PM | Thursday: 8:00 AM – 10:00 PM | Friday: 6:00 AM – 2:00 AM | Saturday: 6:00 AM – 2:00 AM | Sunday: 8:00 AM – 10:00 PM,4.5,313,PRICE_LEVEL_MODERATE,Google Places API,2026-04-21,32.750575,-117.1304083,,,,,
Dos Palmas Cafe - Normal Heights,"3562 Adams Ave, San Diego, CA 92116, USA",(619) 496-4343,https://www.dospalmascafe.com/,,Monday: 7:00 AM – 2:00 PM | Tuesday: 7:00 AM – 2:00 PM | Wednesday: 7:00 AM – 2:00 PM | Thursday: 7:00 AM – 2:00 PM | Friday: 7:00 AM – 2:00 PM | Saturday: 7:00 AM – 2:00 PM | Sunday: 7:00 AM – 2:00 PM,4.9,590,PRICE_LEVEL_INEXPENSIVE,Google Places API,2026-04-21,32.7635282,-117.11595919999999,,,,,
Working Class,"4095 30th St, San Diego, CA 92104, USA",(619) 642-0114,http://www.workingclasssd.com/,Monday: 3:00 – 6:00 PM | Tuesday: 3:00 – 6:00 PM | Wednesday: 3:00 – 6:00 PM | Thursday: 3:00 – 6:00 PM | Friday: 3:00 – 6:00 PM | Saturday: Closed | Sunday: Closed,Monday: 9:00 AM – 10:00 PM | Tuesday: 9:00 AM – 10:00 PM | Wednesday: 9:00 AM – 10:00 PM | Thursday: 9:00 AM – 10:00 PM | Friday: 9:00 AM – 10:00 PM | Saturday: 9:00 AM – 10:00 PM | Sunday: 9:00 AM – 9:00 PM,4.5,860,PRICE_LEVEL_MODERATE,Google Places API (Happy Hours),2026-04-21,32.752063,-117.1299853,,,,,
Ximalli Restaurant,"3677 University Ave, San Diego, CA 92104, USA",(619) 359-0235,https://ximalli.restaurant/,,Monday: 8:00 AM – 10:00 PM | Tuesday: 8:00 AM – 10:00 PM | Wednesday: 8:00 AM – 10:00 PM | Thursday: 8:00 AM – 10:00 PM | Friday: 8:00 AM – 10:00 PM | Saturday: 8:00 AM – 10:00 PM | Sunday: 8:00 AM – 10:00 PM,5,8,,Google Places API,2026-04-21,32.749582,-117.11367539999999,,,,,
DAO Fu,"3332 Adams Ave, San Diego, CA 92116, USA",(619) 281-6888,https://daofu.has.restaurant/,,"Monday: Closed | Tuesday: 11:00 AM – 2:00 PM, 5:00 – 8:30 PM | Wednesday: 11:00 AM – 2:00 PM, 5:00 – 8:30 PM | Thursday: 11:00 AM – 2:00 PM, 5:00 – 8:30 PM | Friday: 11:00 AM – 2:00 PM, 5:00 – 9:00 PM | Saturday: 11:00 AM – 2:00 PM, 5:00 – 9:00 PM | Sunday: 11:00 AM – 2:00 PM, 5:00 – 8:30 PM",4.7,565,PRICE_LEVEL_INEXPENSIVE,Google Places API,2026-04-21,32.763531799999996,-117.12206759999998,,,,,
Wormwood,"4677 30th St, San Diego, CA 92116, USA",(619) 915-6706,http://www.wormwoodsd.com/,Monday: 3:00 PM - 6:00 PM | Tuesday: 3:00 PM - 6:00 PM | Wednesday: 3:00 PM - 6:00 PM | Thursday: 3:00 PM - 6:00 PM | Friday: 4:00 PM - 7:00 PM | Saturday: Closed | Sunday: Closed,"Monday: Closed | Tuesday: Closed | Wednesday: 5:00 – 9:30 PM | Thursday: 5:00 – 9:30 PM | Friday: 5:00 – 10:00 PM | Saturday: 5:00 – 10:00 PM | Sunday: 10:00 AM – 2:00 PM, 5:00 – 9:30 PM",4.5,345,,Website (AI parsed),2026-04-21,32.7624737,-117.1299911,,,,,
Antique Row Cafe,"3002 Adams Ave, San Diego, CA 92116, USA",(619) 282-9750,https://antiquerowcafesd.com/,,Monday: 7:00 AM – 2:00 PM | Tuesday: 7:00 AM – 2:00 PM | Wednesday: 7:00 AM – 2:00 PM | Thursday: 7:00 AM – 2:00 PM | Friday: 7:00 AM – 2:00 PM | Saturday: 7:00 AM – 2:00 PM | Sunday: 7:00 AM – 2:00 PM,4.6,1094,PRICE_LEVEL_MODERATE,Google Places API,2026-04-21,32.7630074,-117.1300128,,,,,
Rusticucina,"3797 Park Blvd, San Diego, CA 92103, USA",(619) 310-5291,https://www.rusticucina.com/,Monday: 4:00 PM - 10:00 PM | Tuesday: 4:00 PM - 10:00 PM | Wednesday: 4:00 PM - 10:00 PM | Thursday: 4:00 PM - 10:00 PM | Friday: 4:00 PM - 10:00 PM | Saturday: 4:00 PM - 10:00 PM | Sunday: 4:00 PM - 10:00 PM,Monday: 4:00 – 10:00 PM | Tuesday: 4:00 – 10:00 PM | Wednesday: 4:00 – 10:00 PM | Thursday: 4:00 – 10:00 PM | Friday: 4:00 – 10:00 PM | Saturday: 4:00 – 10:00 PM | Sunday: 4:00 – 10:00 PM,4.6,770,PRICE_LEVEL_MODERATE,Website (AI parsed),2026-04-21,32.7475077,-117.14607849999999,,,,,
Vallarta Taco Shop,"4125 El Cajon Blvd, San Diego, CA 92105, USA",(619) 804-9822,,,Monday: Closed | Tuesday: 12:00 PM – 2:00 AM | Wednesday: 12:00 PM – 2:00 AM | Thursday: 12:00 PM – 2:00 AM | Friday: 12:00 PM – 2:00 AM | Saturday: 12:00 PM – 2:00 AM | Sunday: 12:00 PM – 2:00 AM,4,221,PRICE_LEVEL_INEXPENSIVE,Google Places API,2026-04-21,32.754922,-117.10652749999998,,,,,
Popeyes Louisiana Kitchen,"2810 El Cajon Blvd, San Diego, CA 92104, USA",(619) 781-4354,https://www.popeyes.com/store-locator/store/restaurant_237543,Monday: 3:00 PM - 6:00 PM | Tuesday: 3:00 PM - 6:00 PM | Wednesday: 3:00 PM - 6:00 PM | Thursday: 3:00 PM - 6:00 PM | Friday: 4:00 PM - 7:00 PM | Saturday: Closed | Sunday: Closed,Monday: 10:00 AM – 11:00 PM | Tuesday: 10:00 AM – 11:00 PM | Wednesday: 10:00 AM – 11:00 PM | Thursday: 10:00 AM – 11:00 PM | Friday: 10:00 AM – 11:00 PM | Saturday: 10:00 AM – 11:00 PM | Sunday: 10:00 AM – 11:00 PM,4,778,PRICE_LEVEL_INEXPENSIVE,Website (AI parsed),2026-04-21,32.7558082,-117.13346709999999,,,,,
Kensington Cafe,"4141 Adams Ave, San Diego, CA 92116, USA",(619) 640-0494,http://www.kensingtoncafesd.com/,,Monday: 7:30 AM – 2:00 PM | Tuesday: 7:30 AM – 2:00 PM | Wednesday: 7:30 AM – 2:00 PM | Thursday: 7:30 AM – 2:00 PM | Friday: 7:30 AM – 2:00 PM | Saturday: 7:30 AM – 3:00 PM | Sunday: 7:30 AM – 3:00 PM,4.5,1284,PRICE_LEVEL_MODERATE,Google Places API,2026-04-21,32.763041699999995,-117.10611730000001,,,,,
Denny's Restaurant,"4365 University Ave, San Diego, CA 92105, USA",(619) 280-1121,https://locations.dennys.com/CA/SAN-DIEGO/247680?utm_source=G&utm_medium=organic&utm_campaign=DAC,,Monday: 5:00 AM – 12:00 AM | Tuesday: 5:00 AM – 12:00 AM | Wednesday: 5:00 AM – 12:00 AM | Thursday: 5:00 AM – 12:00 AM | Friday: Open 24 hours | Saturday: Open 24 hours | Sunday: Open 24 hours,4.4,2558,PRICE_LEVEL_INEXPENSIVE,Google Places API,2026-04-21,32.7493943,-117.10066439999999,,,,,
Siamo Napoli Restaurant,"3959 30th St STE 105, San Diego, CA 92104, USA",(619) 310-6981,http://siamonapolisd.com/,Monday: Closed | Tuesday: Closed | Wednesday: Closed | Thursday: Closed | Friday: Closed | Saturday: Closed | Sunday: Closed,Monday: 4:00 – 8:30 PM | Tuesday: 4:00 – 8:30 PM | Wednesday: 4:00 – 8:30 PM | Thursday: 4:00 – 8:30 PM | Friday: 4:00 – 9:30 PM | Saturday: 4:00 – 9:30 PM | Sunday: 4:00 – 8:30 PM,4.7,938,PRICE_LEVEL_MODERATE,Website (AI parsed),2026-04-21,32.7494113,-117.1299076,,,,,
Nozaru Ramen Bar,"3375 Adams Ave, San Diego, CA 92116, USA",(619) 564-7183,http://nozaruramen.com/,Monday: 4:00 – 6:00 PM | Tuesday: 4:00 – 6:00 PM | Wednesday: 4:00 – 6:00 PM | Thursday: 4:00 – 6:00 PM | Friday: 4:00 – 6:00 PM | Saturday: 4:00 – 6:00 PM | Sunday: 4:00 – 6:00 PM,Monday: 4:00 – 9:00 PM | Tuesday: 4:00 – 9:00 PM | Wednesday: 4:00 – 9:00 PM | Thursday: 4:00 – 9:00 PM | Friday: 12:00 – 10:00 PM | Saturday: 12:00 – 10:00 PM | Sunday: 12:00 – 9:00 PM,4.5,373,PRICE_LEVEL_MODERATE,Google Places API (Happy Hours),2026-04-21,32.7631174,-117.12118999999998,,,,,
Trust,"3752 Park Blvd, San Diego, CA 92103, USA",(619) 795-6901,http://www.trustrestaurantsd.com/,Monday: 5:00 PM - 6:00 PM | Tuesday: 5:00 PM - 6:00 PM | Wednesday: 5:00 PM - 6:00 PM | Thursday: 5:00 PM - 6:00 PM | Friday: 5:00 PM - 6:00 PM | Saturday: 5:00 PM - 6:00 PM | Sunday: 5:00 PM - 6:00 PM,"Monday: 5:00 – 9:00 PM | Tuesday: Closed | Wednesday: 5:00 – 9:00 PM | Thursday: 5:00 – 9:00 PM | Friday: 5:00 – 10:00 PM | Saturday: 9:00 AM – 2:00 PM, 5:00 – 10:00 PM | Sunday: 9:00 AM – 2:00 PM, 5:00 – 9:00 PM",4.6,1402,PRICE_LEVEL_MODERATE,Website (AI parsed),2026-04-21,32.746454799999995,-117.14681069999999,,,,,
Bangkok Spices Thai Restaurant,"3627 30th St, San Diego, CA 92104, USA",(619) 281-1111,https://orderbangkokspicesthai.com/,,Monday: Closed | Tuesday: 11:00 AM – 12:00 AM | Wednesday: 11:00 AM – 12:00 AM | Thursday: 11:00 AM – 12:00 AM | Friday: 11:00 AM – 12:00 AM | Saturday: 11:00 AM – 12:00 AM | Sunday: Closed,4.5,388,PRICE_LEVEL_MODERATE,Google Places API,2026-04-21,32.7448228,-117.12982149999999,,,,,
Louisiana Purchase,"2305 University Ave, San Diego, CA 92104, USA",(619) 723-2880,https://www.louisianapurchasesd.com/,Monday: 3:00 – 5:00 PM | Tuesday: 3:00 – 5:00 PM | Wednesday: 3:00 – 5:00 PM | Thursday: 3:00 – 5:00 PM | Friday: 3:00 – 5:00 PM | Saturday: Closed | Sunday: Closed,Monday: 3:00 – 9:00 PM | Tuesday: 3:00 – 9:00 PM | Wednesday: 3:00 – 9:00 PM | Thursday: 3:00 – 9:00 PM | Friday: 3:00 – 10:00 PM | Saturday: 12:00 – 10:00 PM | Sunday: 12:00 – 8:00 PM,4.3,2035,PRICE_LEVEL_MODERATE,Google Places API (Happy Hours),2026-04-21,32.7482983,-117.13979509999999,,,,,
Pappalecco,"4202 Adams Ave, San Diego, CA 92116, USA",(619) 255-4770,https://pappalecco.com/,Monday: 2:00 – 6:00 PM | Tuesday: 2:00 – 6:00 PM | Wednesday: 2:00 – 6:00 PM | Thursday: 2:00 – 6:00 PM | Friday: 2:00 – 6:00 PM | Saturday: Closed | Sunday: Closed,Monday: 7:00 AM – 9:30 PM | Tuesday: 7:00 AM – 9:30 PM | Wednesday: 7:00 AM – 9:30 PM | Thursday: 7:00 AM – 9:30 PM | Friday: 7:00 AM – 10:00 PM | Saturday: 7:00 AM – 10:00 PM | Sunday: 7:00 AM – 9:30 PM,4.7,805,PRICE_LEVEL_MODERATE,Google Places API (Happy Hours),2026-04-21,32.7633478,-117.10462260000001,,,,,
Sayulitas Mexican Food,"4126 University Ave, San Diego, CA 92105, USA",(619) 230-5226,https://sayulitaseats.com/sayulitasmexicanfood?utm_source=google,,Monday: 7:00 AM – 11:00 PM | Tuesday: 7:00 AM – 11:00 PM | Wednesday: 7:00 AM – 11:00 PM | Thursday: 7:00 AM – 11:00 PM | Friday: 7:00 AM – 12:00 AM | Saturday: 7:00 AM – 12:00 AM | Sunday: 7:00 AM – 11:00 PM,4.4,129,PRICE_LEVEL_MODERATE,Google Places API,2026-04-21,32.7502612,-117.10619750000001,,,,,
Denny's Restaurant,"2445 El Cajon Blvd, San Diego, CA 92104, USA",(619) 298-7046,https://locations.dennys.com/CA/SAN-DIEGO/246265?utm_source=G&utm_medium=organic&utm_campaign=DAC,,Monday: Open 24 hours | Tuesday: Open 24 hours | Wednesday: Open 24 hours | Thursday: Open 24 hours | Friday: Open 24 hours | Saturday: Open 24 hours | Sunday: Open 24 hours,4.5,4321,PRICE_LEVEL_INEXPENSIVE,Google Places API,2026-04-21,32.7550417,-117.13784649999998,,,,,
Rolberto's Taco Shop,"4090 El Cajon Blvd APT G, San Diego, CA 92105, USA",(619) 282-9859,,,Monday: 6:00 AM – 12:00 AM | Tuesday: 6:00 AM – 12:00 AM | Wednesday: 6:00 AM – 12:00 AM | Thursday: 6:00 AM – 12:00 AM | Friday: 6:00 AM – 12:00 AM | Saturday: 6:00 AM – 12:00 AM | Sunday: 6:00 AM – 12:00 AM,4.1,452,PRICE_LEVEL_INEXPENSIVE,Google Places API,2026-04-21,32.7556101,-117.1074245,,,,,
Sahara on Adams,"3355 Adams Ave, San Diego, CA 92116, USA",(619) 380-2292,http://www.saharaonadams.com/,,Monday: 11:00 AM – 9:00 PM | Tuesday: 11:00 AM – 9:00 PM | Wednesday: 11:00 AM – 9:00 PM | Thursday: 11:00 AM – 9:00 PM | Friday: 11:00 AM – 10:00 PM | Saturday: 11:00 AM – 10:00 PM | Sunday: 11:00 AM – 8:00 PM,4.5,160,PRICE_LEVEL_MODERATE,Google Places API,2026-04-21,32.7632252,-117.1215399,,,,,
Aiberto's Taco Shop,"3894 41st St, San Diego, CA 92105, USA",(619) 640-6810,,,Monday: Open 24 hours | Tuesday: Open 24 hours | Wednesday: Open 24 hours | Thursday: Open 24 hours | Friday: Open 24 hours | Saturday: Open 24 hours | Sunday: Open 24 hours,3.9,481,PRICE_LEVEL_INEXPENSIVE,Google Places API,2026-04-21,32.7494632,-117.10719499999999,,,,,
Filiberto's Mexican Food,"3446 University Ave, San Diego, CA 92105, USA",(619) 640-0385,https://filibertosmexicanfoodgo.twupro.com/,,Monday: Open 24 hours | Tuesday: Open 24 hours | Wednesday: Open 24 hours | Thursday: Open 24 hours | Friday: Open 24 hours | Saturday: Open 24 hours | Sunday: Open 24 hours,3.9,1268,PRICE_LEVEL_INEXPENSIVE,Google Places API,2026-04-21,32.7499519,-117.11949840000001,,,,,
The Haven Pizzeria,"4051 Adams Ave, San Diego, CA 92116, USA",(619) 281-1904,https://www.thehavenpizzeria.com/,Monday: 3:00 – 5:00 PM | Tuesday: 3:00 – 5:00 PM | Wednesday: 3:00 – 5:00 PM | Thursday: 3:00 – 5:00 PM | Friday: 3:00 – 5:00 PM | Saturday: Closed | Sunday: Closed,Monday: 3:00 – 8:30 PM | Tuesday: 3:00 – 8:30 PM | Wednesday: 3:00 – 8:30 PM | Thursday: 3:00 – 8:30 PM | Friday: 11:30 AM – 9:00 PM | Saturday: 11:30 AM – 9:00 PM | Sunday: 11:30 AM – 8:00 PM,4.6,420,PRICE_LEVEL_MODERATE,Google Places API (Happy Hours),2026-04-21,32.7631367,-117.10826089999999,,,,,
Jyoti-Bihanga Vegan & Vegetarian Restaurant,"3351 Adams Ave, San Diego, CA 92116, USA",(619) 282-4116,http://www.jyotibihanga.com/,,Monday: 11:30 AM – 8:30 PM | Tuesday: 11:30 AM – 8:30 PM | Wednesday: 11:30 AM – 3:00 PM | Thursday: 11:30 AM – 8:30 PM | Friday: 11:30 AM – 8:30 PM | Saturday: 11:30 AM – 8:30 PM | Sunday: Closed,4.8,533,PRICE_LEVEL_INEXPENSIVE,Google Places API,2026-04-21,32.763206,-117.12159299999998,,,,,
Chris' Ono Grinds Island Grill - North Park,"4506 30th St, San Diego, CA 92116, USA",(619) 269-9962,https://onogrindscafe.com/,,Monday: 11:30 AM – 9:00 PM | Tuesday: Closed | Wednesday: 11:30 AM – 9:00 PM | Thursday: 11:30 AM – 9:00 PM | Friday: 11:30 AM – 9:00 PM | Saturday: 11:30 AM – 9:00 PM | Sunday: 11:30 AM – 9:00 PM,4.6,909,PRICE_LEVEL_INEXPENSIVE,Google Places API,2026-04-21,32.7593864,-117.13036140000001,,,,,
The Mission,"2801 University Ave, San Diego, CA 92104, USA",(619) 220-8992,http://www.themissionsd.com/,,Monday: 7:00 AM – 2:00 PM | Tuesday: 7:00 AM – 2:00 PM | Wednesday: 7:00 AM – 2:00 PM | Thursday: 7:00 AM – 2:00 PM | Friday: 7:00 AM – 2:00 PM | Saturday: 7:00 AM – 2:00 PM | Sunday: 7:00 AM – 2:00 PM,4.5,1597,PRICE_LEVEL_MODERATE,Google Places API,2026-04-21,32.7482955,-117.13348610000001,,,,,
White Rice,"3586 Adams Ave Suite 100, San Diego, CA 92116, USA",(619) 255-1972,https://www.ricebowlsforall.com/,,Monday: 11:00 AM – 7:00 PM | Tuesday: 11:00 AM – 7:00 PM | Wednesday: 11:00 AM – 7:00 PM | Thursday: 11:00 AM – 7:00 PM | Friday: 11:00 AM – 8:00 PM | Saturday: 11:00 AM – 8:00 PM | Sunday: 11:00 AM – 7:00 PM,4.2,212,PRICE_LEVEL_MODERATE,Google Places API,2026-04-21,32.763556799999996,-117.1155513,,,,,
100's seafood grill buffet,"2828 Camino del Rio S, San Diego, CA 92108, USA",(619) 906-4886,http://100sbuffet.com/,,Monday: 4:00 – 9:00 PM | Tuesday: Closed | Wednesday: 4:00 – 9:00 PM | Thursday: 4:00 – 9:00 PM | Friday: 4:00 – 9:00 PM | Saturday: 12:00 – 9:00 PM | Sunday: 12:00 – 9:00 PM,4.3,4164,PRICE_LEVEL_MODERATE,Google Places API,2026-04-21,32.7709067,-117.13224640000001,,,,,
Thai Joint,"3456 Adams Ave, San Diego, CA 92116, USA",(619) 564-6659,http://thai-joint.com/,Monday: 3:00 PM - 6:00 PM | Tuesday: 3:00 PM - 6:00 PM | Wednesday: 3:00 PM - 6:00 PM | Thursday: 3:00 PM - 6:00 PM | Friday: 4:00 PM - 7:00 PM | Saturday: Closed | Sunday: Closed,"Monday: 11:30 AM – 2:30 PM, 4:00 – 9:00 PM | Tuesday: 11:30 AM – 2:30 PM, 4:00 – 9:00 PM | Wednesday: 11:30 AM – 2:30 PM, 4:00 – 9:00 PM | Thursday: 11:30 AM – 2:30 PM, 4:00 – 9:00 PM | Friday: 11:00 AM – 2:30 PM, 4:00 – 9:00 PM | Saturday: 11:00 AM – 9:00 PM | Sunday: 11:00 AM – 9:00 PM",4.4,232,PRICE_LEVEL_MODERATE,Website (AI parsed),2026-04-21,32.763594,-117.11881760000001,,,,,
Laredo Taco Company,"3504 El Cajon Blvd, San Diego, CA 92104, USA",(619) 607-8742,https://www.laredotacocompany.com/restaurant-locator/detail/38571?utm_source=G&utm_medium=local&utm_campaign=google-local,,Monday: Open 24 hours | Tuesday: Open 24 hours | Wednesday: Open 24 hours | Thursday: Open 24 hours | Friday: Open 24 hours | Saturday: Open 24 hours | Sunday: Open 24 hours,4,82,,Google Places API,2026-04-21,32.7557016,-117.11772370000001,,,,,
Ponce's Mexican Restaurant,"4050 Adams Ave, San Diego, CA 92116, USA",(619) 282-4413,http://www.poncesrestaurant.com/,"Monday: 2:00 – 5:00 PM, 8:00 – 9:00 PM | Tuesday: 2:00 – 5:00 PM, 8:00 – 9:00 PM | Wednesday: 2:00 – 5:00 PM, 8:00 – 9:00 PM | Thursday: 2:00 – 5:00 PM, 8:00 – 9:00 PM | Friday: 2:00 – 5:00 PM | Saturday: 2:00 – 5:00 PM | Sunday: Closed",Monday: 11:00 AM – 9:00 PM | Tuesday: 11:00 AM – 9:00 PM | Wednesday: 11:00 AM – 9:00 PM | Thursday: 11:00 AM – 9:00 PM | Friday: 11:00 AM – 9:00 PM | Saturday: 11:00 AM – 9:00 PM | Sunday: Closed,4.5,1815,PRICE_LEVEL_MODERATE,Google Places API (Happy Hours),2026-04-21,32.7634628,-117.1082107,,,,,
Black Radish,"2591 University Ave, San Diego, CA 92104, USA",(619) 269-1980,https://www.blckrdsh.com/,Monday: 3:00 PM - 6:00 PM | Tuesday: 3:00 PM - 6:00 PM | Wednesday: 3:00 PM - 6:00 PM | Thursday: 3:00 PM - 6:00 PM | Friday: 4:00 PM - 7:00 PM | Saturday: Closed | Sunday: Closed,Monday: Closed | Tuesday: Closed | Wednesday: 5:00 – 10:00 PM | Thursday: 5:00 – 10:00 PM | Friday: 5:00 – 10:00 PM | Saturday: 5:00 – 10:00 PM | Sunday: Closed,4.7,202,,Website (AI parsed),2026-04-21,32.748255900000004,-117.1359021,,,,,
El Comal North Park,"3946 Illinois St, San Diego, CA 92104, USA",(619) 294-8292,https://elcomalsd.com/?utm_source=google,,"Monday: 10:00 AM – 3:00 PM, 5:00 – 9:00 PM | Tuesday: 10:00 AM – 3:00 PM, 5:00 – 9:00 PM | Wednesday: 10:00 AM – 3:00 PM, 5:00 – 9:00 PM | Thursday: 10:00 AM – 3:00 PM, 5:00 – 9:00 PM | Friday: 10:00 AM – 9:00 PM | Saturday: 9:00 AM – 9:00 PM | Sunday: 9:00 AM – 8:00 PM",4.4,1251,PRICE_LEVEL_MODERATE,Google Places API,2026-04-21,32.749352699999996,-117.1279433,,,,,
Hom Mali by The NoodBar,"4596 30th St, San Diego, CA 92116, USA",(619) 269-2117,https://www.ordernoodbar.com/,"Monday: 12:00 PM - 3:00 PM, 4:30 PM - 9:00 PM | Tuesday: 12:00 PM - 3:00 PM, 4:30 PM - 9:00 PM | Wednesday: 12:00 PM - 3:00 PM, 4:30 PM - 9:00 PM | Thursday: 12:00 PM - 3:00 PM, 4:30 PM - 9:00 PM | Friday: 12:00 PM - 3:00 PM, 4:30 PM - 9:30 PM | Saturday: 12:00 PM - 9:30 PM | Sunday: 12:00 PM - 9:30 PM","Monday: 11:30 AM – 3:30 PM, 4:30 – 9:30 PM | Tuesday: 11:30 AM – 3:30 PM, 4:30 – 9:30 PM | Wednesday: 11:30 AM – 3:30 PM, 4:30 – 9:30 PM | Thursday: 11:30 AM – 3:30 PM, 4:30 – 9:30 PM | Friday: 11:30 AM – 3:30 PM, 4:30 – 9:30 PM | Saturday: 11:30 AM – 3:30 PM, 4:30 – 9:30 PM | Sunday: 11:30 AM – 3:30 PM, 4:30 – 9:30 PM",4.3,311,PRICE_LEVEL_MODERATE,Website (AI parsed),2026-04-21,32.760827,-117.13042320000001,,,,,
Thai Time North Park,"4102 30th St, San Diego, CA 92104, USA",(619) 282-1060,https://www.toasttab.com/thai-time-northpark-4102-30th-street,,Monday: 11:30 AM – 9:30 PM | Tuesday: 11:30 AM – 9:30 PM | Wednesday: 11:30 AM – 9:30 PM | Thursday: 11:30 AM – 9:30 PM | Friday: 11:30 AM – 10:00 PM | Saturday: 11:30 AM – 10:00 PM | Sunday: 11:30 AM – 9:30 PM,4.4,581,PRICE_LEVEL_INEXPENSIVE,Google Places API,2026-04-21,32.7523245,-117.1303214,,,,,
Sycamore Den,"3391 Adams Ave, San Diego, CA 92116, USA",(619) 259-0045,http://www.sycamoreden.com/,Monday: 5:00 PM - 7:00 PM | Tuesday: 5:00 PM - 7:00 PM | Wednesday: 5:00 PM - 7:00 PM | Thursday: 5:00 PM - 7:00 PM | Friday: 2:00 PM - 7:00 PM | Saturday: 2:00 PM - 7:00 PM | Sunday: 2:00 PM - 7:00 PM,Monday: 5:00 PM – 2:00 AM | Tuesday: 5:00 PM – 2:00 AM | Wednesday: 5:00 PM – 2:00 AM | Thursday: 5:00 PM – 2:00 AM | Friday: 2:00 PM – 2:00 AM | Saturday: 2:00 PM – 2:00 AM | Sunday: 2:00 PM – 2:00 AM,4.4,392,PRICE_LEVEL_MODERATE,Website (AI parsed),2026-04-21,32.76324170000001,-117.12089440000001,,,,,
Rosie O'Grady's,"3402 Adams Ave, San Diego, CA 92116, USA",(619) 284-7666,http://rosieogradyssd.com/,Monday: 4:00 PM - 7:00 PM | Tuesday: 4:00 PM - 7:00 PM | Wednesday: 4:00 PM - 7:00 PM | Thursday: 4:00 PM - 7:00 PM | Friday: 4:00 PM - 7:00 PM | Saturday: Closed | Sunday: Closed,Monday: 11:00 AM – 2:00 AM | Tuesday: 11:00 AM – 2:00 AM | Wednesday: 11:00 AM – 2:00 AM | Thursday: 11:00 AM – 2:00 AM | Friday: 11:00 AM – 2:00 AM | Saturday: 11:00 AM – 2:00 AM | Sunday: 10:00 AM – 2:00 AM,4.4,461,PRICE_LEVEL_INEXPENSIVE,Website (AI parsed),2026-04-21,32.7635404,-117.12053890000001,,,,,
Swan Bar,"2933 Adams Ave, San Diego, CA 92116, USA",,,Monday: Closed | Tuesday: 4:00 – 5:00 PM | Wednesday: 4:00 – 5:00 PM | Thursday: 4:00 – 5:00 PM | Friday: 4:00 – 5:00 PM | Saturday: 4:00 – 5:00 PM | Sunday: Closed,Monday: Closed | Tuesday: 4:00 PM – 12:00 AM | Wednesday: 4:00 PM – 12:00 AM | Thursday: 4:00 PM – 12:00 AM | Friday: 4:00 PM – 12:00 AM | Saturday: 3:00 PM – 12:00 AM | Sunday: Closed,4.5,252,PRICE_LEVEL_INEXPENSIVE,Google Places API (Happy Hours),2026-04-21,32.7627368,-117.1306712,,,,,
Triple Crown Pub,"3221 Adams Ave, San Diego, CA 92116, USA",,,,Monday: 5:00 PM – 12:00 AM | Tuesday: 5:00 PM – 1:30 AM | Wednesday: 5:00 PM – 1:30 AM | Thursday: 5:00 PM – 1:30 AM | Friday: 5:00 PM – 1:30 AM | Saturday: 3:00 PM – 1:30 AM | Sunday: 3:00 PM – 1:30 AM,4.4,430,PRICE_LEVEL_INEXPENSIVE,Google Places API,2026-04-21,32.763189,-117.12442870000001,,,,,
Polite Provisions,"4696 30th St, San Diego, CA 92116, USA",(619) 269-4701,http://politeprovisions.com/,Monday: 5:00 PM - 2:00 AM | Tuesday: 5:00 PM - 2:00 AM | Wednesday: 5:00 PM - 2:00 AM | Thursday: 5:00 PM - 2:00 AM | Friday: 3:00 PM - 2:00 AM | Saturday: 3:00 PM - 2:00 AM | Sunday: 3:00 PM - 2:00 AM,Monday: 5:00 PM – 2:00 AM | Tuesday: 5:00 PM – 2:00 AM | Wednesday: 5:00 PM – 2:00 AM | Thursday: 5:00 PM – 2:00 AM | Friday: 3:00 PM – 2:00 AM | Saturday: 3:00 PM – 2:00 AM | Sunday: 3:00 PM – 2:00 AM,4.6,2082,PRICE_LEVEL_MODERATE,Website (AI parsed),2026-04-21,32.7627472,-117.1303853,,,,,
Soda Bar,"3615 El Cajon Blvd, San Diego, CA 92104, USA",,http://sodabarmusic.com/,Monday: 3:00 PM - 6:00 PM | Tuesday: 3:00 PM - 6:00 PM | Wednesday: 3:00 PM - 6:00 PM | Thursday: 3:00 PM - 6:00 PM | Friday: 4:00 PM - 7:00 PM | Saturday: Closed | Sunday: Closed,Monday: 7:00 PM – 1:00 AM | Tuesday: 7:00 PM – 1:00 AM | Wednesday: 7:00 PM – 1:00 AM | Thursday: 7:00 PM – 1:00 AM | Friday: 7:00 PM – 1:00 AM | Saturday: 7:00 PM – 1:00 AM | Sunday: 7:00 PM – 1:00 AM,4.4,707,PRICE_LEVEL_INEXPENSIVE,Website (AI parsed),2026-04-21,32.7550598,-117.11542,,,,,
Cricket's Pub,"3339 El Cajon Blvd, San Diego, CA 92104, USA",(619) 282-8277,https://cricketspub.simdif.com/,Monday: 6:00 – 9:00 PM | Tuesday: 6:00 – 9:00 PM | Wednesday: 4:00 – 7:00 PM | Thursday: 4:00 – 7:00 PM | Friday: 4:00 – 7:00 PM | Saturday: Closed | Sunday: 10:00 AM – 12:00 PM,Monday: 10:00 AM – 2:00 AM | Tuesday: 10:00 AM – 2:00 AM | Wednesday: 10:00 AM – 2:00 AM | Thursday: 10:00 AM – 2:00 AM | Friday: 10:00 AM – 2:00 AM | Saturday: 10:00 AM – 2:00 AM | Sunday: 10:00 AM – 2:00 AM,4.4,104,PRICE_LEVEL_INEXPENSIVE,Google Places API (Happy Hours),2026-04-21,32.754993,-117.1215057,,,,,
Part Time Lover,"3829 30th St, San Diego, CA 92104, USA",(619) 932-4434,http://parttimeloverhifi.com/,Monday: 3:00 PM - 6:00 PM | Tuesday: 3:00 PM - 6:00 PM | Wednesday: 3:00 PM - 6:00 PM | Thursday: 3:00 PM - 6:00 PM | Friday: 4:00 PM - 7:00 PM | Saturday: Closed | Sunday: Closed,Monday: 4:00 PM – 2:00 AM | Tuesday: 4:00 PM – 2:00 AM | Wednesday: 4:00 PM – 2:00 AM | Thursday: 4:00 PM – 2:00 AM | Friday: 4:00 PM – 2:00 AM | Saturday: 4:00 PM – 2:00 AM | Sunday: 4:00 PM – 2:00 AM,4.5,504,PRICE_LEVEL_MODERATE,Website (AI parsed),2026-04-21,32.747976799999996,-117.12994439999999,,,,,
Happy Medium,"4002 30th St, San Diego, CA 92104, USA",(619) 310-5642,http://www.happymediumsd.com/,,Monday: 4:00 PM – 12:00 AM | Tuesday: 4:00 PM – 12:00 AM | Wednesday: 4:00 PM – 12:00 AM | Thursday: 4:00 PM – 12:00 AM | Friday: 11:00 AM – 12:00 AM | Saturday: 11:00 AM – 12:00 AM | Sunday: 11:00 AM – 12:00 AM,4.7,129,PRICE_LEVEL_MODERATE,Google Places API,2026-04-21,32.7504907,-117.13038119999999,,,,,
Redwing Bar & Grill,"4012 30th St, San Diego, CA 92104, USA",(619) 281-8700,http://www.redwingbar.com/,Monday: Not specified | Tuesday: Not specified | Wednesday: Not specified | Thursday: Not specified | Friday: Not specified | Saturday: Not specified | Sunday: Not specified,Monday: 2:00 PM – 1:00 AM | Tuesday: 11:00 AM – 1:00 AM | Wednesday: 11:00 AM – 1:00 AM | Thursday: 11:00 AM – 1:00 AM | Friday: 11:00 AM – 2:00 AM | Saturday: 11:00 AM – 2:00 AM | Sunday: 11:00 AM – 1:00 AM,4.4,1168,PRICE_LEVEL_INEXPENSIVE,Website (AI parsed),2026-04-21,32.750651999999995,-117.13041539999999,,,,,
Seven Grand San Diego,"3054 University Ave, San Diego, CA 92104, USA",(619) 269-8820,https://www.sevengrandsd.com/,Monday: 4:00 – 8:00 PM | Tuesday: 4:00 – 8:00 PM | Wednesday: 4:00 – 8:00 PM | Thursday: 4:00 – 8:00 PM | Friday: 4:00 – 8:00 PM | Saturday: 4:00 – 8:00 PM | Sunday: 4:00 – 8:00 PM,Monday: 4:00 PM – 2:00 AM | Tuesday: 4:00 PM – 2:00 AM | Wednesday: 4:00 PM – 2:00 AM | Thursday: 4:00 PM – 2:00 AM | Friday: 4:00 PM – 2:00 AM | Saturday: 4:00 PM – 2:00 AM | Sunday: 4:00 PM – 2:00 AM,4.5,940,PRICE_LEVEL_MODERATE,Google Places API (Happy Hours),2026-04-21,32.7486155,-117.1286142,,,,,
Bluefoot Bar and Lounge,"3404 30th St, San Diego, CA 92104, USA",(619) 756-7891,http://www.bluefootsd.com/,,Monday: 11:00 AM – 12:00 AM | Tuesday: 11:00 AM – 12:00 AM | Wednesday: 11:00 AM – 12:00 AM | Thursday: 11:00 AM – 12:00 AM | Friday: 11:00 AM – 2:00 AM | Saturday: 6:00 AM – 2:00 AM | Sunday: 6:00 AM – 12:00 AM,4.4,713,PRICE_LEVEL_INEXPENSIVE,Google Places API,2026-04-21,32.7412135,-117.13024419999998,,,,,
Black Cat Bar,"4246 University Ave, San Diego, CA 92105, USA",(619) 280-5834,https://blackcatbar.wordpress.com/,Monday: 3:00 PM - 6:00 PM | Tuesday: 3:00 PM - 6:00 PM | Wednesday: 3:00 PM - 6:00 PM | Thursday: 3:00 PM - 6:00 PM | Friday: 4:00 PM - 7:00 PM | Saturday: Closed | Sunday: Closed,Monday: 4:00 PM – 2:00 AM | Tuesday: 4:00 PM – 2:00 AM | Wednesday: 4:00 PM – 2:00 AM | Thursday: 4:00 PM – 2:00 AM | Friday: 4:00 PM – 2:00 AM | Saturday: 4:00 PM – 2:00 AM | Sunday: 4:00 PM – 2:00 AM,4.5,420,PRICE_LEVEL_INEXPENSIVE,Website (AI parsed),2026-04-21,32.7497928,-117.10344230000001,,,,,
Gilly's House of Cocktails,"2306 El Cajon Blvd, San Diego, CA 92104, USA",(619) 298-6008,https://www.gillyscocktails.com/,,Monday: 2:00 PM – 2:00 AM | Tuesday: 2:00 PM – 2:00 AM | Wednesday: 2:00 PM – 2:00 AM | Thursday: 2:00 PM – 2:00 AM | Friday: 1:00 PM – 2:00 AM | Saturday: 1:00 PM – 2:00 AM | Sunday: 1:00 PM – 2:00 AM,4.3,453,PRICE_LEVEL_INEXPENSIVE,Google Places API,2026-04-21,32.7555196,-117.1398528,,,,,
The Office Bar,"3936 30th St, San Diego, CA 92104, USA",(619) 450-6632,http://www.theofficebarsd.com/,Monday: 7:00 – 9:00 PM | Tuesday: 7:00 – 9:00 PM | Wednesday: 5:00 – 9:00 PM | Thursday: 5:00 – 9:00 PM | Friday: 5:00 – 9:00 PM | Saturday: 5:00 – 9:00 PM | Sunday: 5:00 – 9:00 PM,Monday: 7:00 PM – 1:45 AM | Tuesday: 7:00 PM – 1:45 AM | Wednesday: 5:00 PM – 1:45 AM | Thursday: 5:00 PM – 1:45 AM | Friday: 5:00 PM – 1:45 AM | Saturday: 5:00 PM – 1:45 AM | Sunday: 5:00 PM – 1:45 AM,4.1,550,PRICE_LEVEL_MODERATE,Google Places API (Happy Hours),2026-04-21,32.7492131,-117.1302676,,,,,
Live Wire,"2103 El Cajon Blvd, San Diego, CA 92104, USA",(619) 291-7450,http://www.livewirebar.com/,Monday: 5:00 PM - 7:00 PM | Tuesday: 5:00 PM - 7:00 PM | Wednesday: 5:00 PM - 7:00 PM | Thursday: 5:00 PM - 7:00 PM | Friday: 5:00 PM - 7:00 PM | Saturday: 5:00 PM - 7:00 PM | Sunday: 5:00 PM - 7:00 PM,Monday: 5:00 PM – 2:00 AM | Tuesday: 5:00 PM – 2:00 AM | Wednesday: 5:00 PM – 2:00 AM | Thursday: 5:00 PM – 2:00 AM | Friday: 5:00 PM – 2:00 AM | Saturday: 5:00 PM – 2:00 AM | Sunday: 5:00 PM – 2:00 AM,4.5,375,PRICE_LEVEL_INEXPENSIVE,Website (AI parsed),2026-04-21,32.755032,-117.1423962,,,,,
Monkeybar,"500 Hotel Cir N, San Diego, CA 92108, USA",(619) 908-5058,https://www.towncountry.com/dine/monkey-bar,Monday: 4:00 PM - 6:00 PM | Tuesday: 4:00 PM - 6:00 PM | Wednesday: 4:00 PM - 6:00 PM | Thursday: 4:00 PM - 6:00 PM | Friday: 5:00 PM - 8:00 PM | Saturday: 5:00 PM - 8:00 PM | Sunday: 4:00 PM - 6:00 PM,Monday: 3:00 – 11:00 PM | Tuesday: 3:00 – 11:00 PM | Wednesday: 12:00 – 11:00 PM | Thursday: 12:00 – 11:00 PM | Friday: 12:00 – 11:00 PM | Saturday: 12:00 – 11:00 PM | Sunday: 3:00 – 11:00 PM,4.6,66,,Website (AI parsed),2026-04-21,32.7633058,-117.1676433,,,,,
Alibi,"1403 University Ave, San Diego, CA 92103, USA",(619) 295-0881,http://www.alibibars.com/,,Monday: 6:00 AM – 2:00 AM | Tuesday: 6:00 AM – 2:00 AM | Wednesday: 6:00 AM – 2:00 AM | Thursday: 6:00 AM – 2:00 AM | Friday: 6:00 AM – 2:00 AM | Saturday: 6:00 AM – 2:00 AM | Sunday: 6:00 AM – 2:00 AM,4.4,513,PRICE_LEVEL_INEXPENSIVE,Google Places API,2026-04-21,32.7482332,-117.1510616,,,,,
U-31,"3112 University Ave, San Diego, CA 92104, USA",(619) 584-4188,http://www.u31bar.com/,Monday: 5:00 PM – 1:30 AM | Tuesday: 5:00 PM – 2:00 AM | Wednesday: 5:00 PM – 2:00 AM | Thursday: 5:00 PM – 2:00 AM | Friday: 5:00 PM – 2:00 AM | Saturday: 2:00 PM – 2:00 AM | Sunday: 9:00 AM – 1:30 AM,Monday: 5:00 PM – 2:00 AM | Tuesday: 5:00 PM – 2:00 AM | Wednesday: 5:00 PM – 2:00 AM | Thursday: 5:00 PM – 2:00 AM | Friday: 5:00 PM – 2:00 AM | Saturday: 2:00 PM – 2:00 AM | Sunday: 2:00 PM – 2:00 AM,4.1,600,PRICE_LEVEL_MODERATE,Google Places API (Happy Hours),2026-04-21,32.7486229,-117.12728879999999,,,,,
The Avenue Sports Bar,"3412 University Ave, San Diego, CA 92104, USA",,,,Monday: 12:00 PM – 2:00 AM | Tuesday: 12:00 PM – 2:00 AM | Wednesday: 12:00 PM – 2:00 AM | Thursday: 12:00 PM – 2:00 AM | Friday: 12:00 PM – 2:00 AM | Saturday: 12:00 PM – 2:00 AM | Sunday: 12:00 PM – 2:00 AM,4.2,45,,Google Places API,2026-04-21,32.749975299999996,-117.12016039999997,,,,,
The Banshee Bar,"3519 El Cajon Blvd, San Diego, CA 92104, USA",(619) 357-5666,https://thebansheebar.com/,Monday: 5:00 PM - 7:00 PM | Tuesday: 5:00 PM - 7:00 PM | Wednesday: 5:00 PM - 7:00 PM | Thursday: 5:00 PM - 7:00 PM | Friday: 5:00 PM - 7:00 PM | Saturday: 5:00 PM - 7:00 PM | Sunday: 5:00 PM - 7:00 PM,Monday: 5:00 PM – 2:00 AM | Tuesday: 5:00 PM – 2:00 AM | Wednesday: 5:00 PM – 2:00 AM | Thursday: 5:00 PM – 2:00 AM | Friday: 5:00 PM – 2:00 AM | Saturday: 5:00 PM – 2:00 AM | Sunday: 5:00 PM – 2:00 AM,4.6,10,,Website (AI parsed),2026-04-21,32.7550248,-117.1175062,,,,,
Cheers,"1839 Adams Ave, San Diego, CA 92116, USA",(619) 298-3269,http://www.cheerssandiego.com/,,Monday: 11:00 AM – 2:00 AM | Tuesday: 11:00 AM – 2:00 AM | Wednesday: 11:00 AM – 2:00 AM | Thursday: 11:00 AM – 2:00 AM | Friday: 11:00 AM – 2:00 AM | Saturday: 11:00 AM – 2:00 AM | Sunday: 11:00 AM – 2:00 AM,4.4,113,PRICE_LEVEL_INEXPENSIVE,Google Places API,2026-04-21,32.7622922,-117.14559089999999,,,,,
The Lancers,"4671 Park Blvd, San Diego, CA 92116, USA",(619) 298-5382,https://www.instagram.com/lancers_cocktails,Monday: 3:00 PM - 6:00 PM | Tuesday: 3:00 PM - 6:00 PM | Wednesday: 3:00 PM - 6:00 PM | Thursday: 3:00 PM - 6:00 PM | Friday: 4:00 PM - 7:00 PM | Saturday: Closed | Sunday: Closed,Monday: 10:00 AM – 1:30 AM | Tuesday: 10:00 AM – 1:30 AM | Wednesday: 10:00 AM – 1:30 AM | Thursday: 10:00 AM – 1:30 AM | Friday: 10:00 AM – 1:30 AM | Saturday: 10:00 AM – 1:30 AM | Sunday: 10:00 AM – 1:30 AM,4.5,281,PRICE_LEVEL_INEXPENSIVE,Website (AI parsed),2026-04-21,32.7623557,-117.1461184,,,,,
The Tower Bar,"4757 University Ave, San Diego, CA 92105, USA",(619) 284-0158,http://thetowerbar.com/,Monday: 4:00 – 7:00 PM | Tuesday: 4:00 – 7:00 PM | Wednesday: 4:00 – 7:00 PM | Thursday: 4:00 – 7:00 PM | Friday: 4:00 – 7:00 PM | Saturday: 4:00 – 7:00 PM | Sunday: 4:00 – 7:00 PM,Monday: 4:00 PM – 2:00 AM | Tuesday: 4:00 PM – 2:00 AM | Wednesday: 4:00 PM – 2:00 AM | Thursday: 4:00 PM – 2:00 AM | Friday: 4:00 PM – 2:00 AM | Saturday: 4:00 PM – 2:00 AM | Sunday: 4:00 PM – 2:00 AM,4.6,394,PRICE_LEVEL_INEXPENSIVE,Google Places API (Happy Hours),2026-04-21,32.749397,-117.09180669999999,,,,,
JT's Tavern,"5821 Mission Gorge Rd, San Diego, CA 92120, USA",(619) 280-4698,http://www.jtspub.com/,Monday: 3:00 – 7:00 PM | Tuesday: 3:00 – 7:00 PM | Wednesday: 3:00 – 7:00 PM | Thursday: 3:00 – 7:00 PM | Friday: 3:00 – 7:00 PM | Saturday: 3:00 – 7:00 PM | Sunday: 3:00 – 7:00 PM,Monday: 12:00 PM – 2:00 AM | Tuesday: 12:00 PM – 2:00 AM | Wednesday: 12:00 PM – 2:00 AM | Thursday: 12:00 PM – 2:00 AM | Friday: 12:00 PM – 2:00 AM | Saturday: 12:00 PM – 2:00 AM | Sunday: 12:00 PM – 2:00 AM,4.3,493,PRICE_LEVEL_INEXPENSIVE,Google Places API (Happy Hours),2026-04-21,32.7811889,-117.10088789999999,,,,,
McGregor's Bar and Grill,"10475 San Diego Mission Rd, San Diego, CA 92108, USA",(619) 282-9797,http://mcgregorssandiego.com/,Monday: 11:00 AM – 12:00 AM | Tuesday: 11:00 AM – 12:00 AM | Wednesday: 11:00 AM – 12:00 AM | Thursday: 11:00 AM – 12:00 AM | Friday: 11:00 AM – 2:00 AM | Saturday: 9:00 AM – 2:00 AM | Sunday: 9:00 AM – 12:00 AM,Monday: 11:00 AM – 12:00 AM | Tuesday: 11:00 AM – 12:00 AM | Wednesday: 11:00 AM – 12:00 AM | Thursday: 11:00 AM – 12:00 AM | Friday: 11:00 AM – 2:00 AM | Saturday: 11:00 AM – 2:00 AM | Sunday: 11:00 AM – 12:00 AM,4.4,1396,PRICE_LEVEL_MODERATE,Google Places API (Happy Hours),2026-04-21,32.7844116,-117.11102419999999,,,,,
Til-Two Club,"4746 El Cajon Blvd, San Diego, CA 92115, USA",(619) 255-1481,http://www.tiltwoclub.com/,Monday: 4:00 – 7:00 PM | Tuesday: 4:00 – 7:00 PM | Wednesday: 4:00 – 7:00 PM | Thursday: 4:00 – 7:00 PM | Friday: 4:00 – 7:00 PM | Saturday: 4:00 – 7:00 PM | Sunday: 4:00 – 7:00 PM,Monday: 4:00 PM – 2:00 AM | Tuesday: 4:00 PM – 2:00 AM | Wednesday: 4:00 PM – 2:00 AM | Thursday: 4:00 PM – 2:00 AM | Friday: 4:00 PM – 2:00 AM | Saturday: 4:00 PM – 2:00 AM | Sunday: 4:00 PM – 2:00 AM,4.4,414,PRICE_LEVEL_INEXPENSIVE,Google Places API (Happy Hours),2026-04-21,32.7561967,-117.09243579999999,,,,,
Coin-Op Game Room,"3926 30th St, San Diego, CA 92104, USA",(619) 255-8523,https://coinopgameroom.com/,Monday: 3:00 PM - 6:00 PM | Tuesday: 3:00 PM - 6:00 PM | Wednesday: 3:00 PM - 6:00 PM | Thursday: 3:00 PM - 6:00 PM | Friday: 4:00 PM - 7:00 PM | Saturday: Closed | Sunday: Closed,Monday: 5:00 PM – 12:00 AM | Tuesday: 5:00 PM – 12:00 AM | Wednesday: 5:00 PM – 12:00 AM | Thursday: 5:00 PM – 12:00 AM | Friday: 5:00 PM – 2:00 AM | Saturday: 2:00 PM – 2:00 AM | Sunday: 2:00 PM – 12:00 AM,4.4,1241,PRICE_LEVEL_MODERATE,Website (AI parsed),2026-04-21,32.7490528,-117.1304167,,,,,
Stadium Club,"6065 Fairmount Ave, San Diego, CA 92120, USA",(619) 282-3286,,,Monday: 6:00 AM – 2:00 AM | Tuesday: 12:00 PM – 2:00 AM | Wednesday: 12:00 PM – 2:00 AM | Thursday: 12:00 PM – 2:00 AM | Friday: 6:00 AM – 2:00 AM | Saturday: 6:00 AM – 2:00 AM | Sunday: 6:00 AM – 2:00 AM,4.5,78,,Google Places API,2026-04-21,32.784749399999995,-117.1012639,,,,,
Cleopatra's Lounge,"3311 Adams Ave A, San Diego, CA 92116, USA",(619) 955-7559,https://cleopatrahookah2014.com/,Monday: 3:00 PM - 7:00 PM | Tuesday: 3:00 PM - 7:00 PM | Wednesday: 3:00 PM - 7:00 PM | Thursday: 3:00 PM - 7:00 PM | Friday: 3:00 PM - 7:00 PM | Saturday: 3:00 PM - 7:00 PM | Sunday: 3:00 PM - 7:00 PM,Monday: 3:00 PM – 2:00 AM | Tuesday: 3:00 PM – 2:00 AM | Wednesday: 3:00 PM – 2:00 AM | Thursday: 3:00 PM – 2:00 AM | Friday: 3:00 PM – 2:00 AM | Saturday: 3:00 PM – 2:00 AM | Sunday: 3:00 PM – 2:00 AM,4.6,73,,Website (AI parsed),2026-04-21,32.7631525,-117.122517,,,,,
Dave & Buster's San Diego,"2931 Camino Del Rio N, San Diego, CA 92108, USA",(619) 280-7115,https://www.daveandbusters.com/us/en/about/locations/san-diego,"Monday: 4:00 – 7:00 PM, 10:00 PM – 12:00 AM | Tuesday: 4:00 – 7:00 PM, 10:00 PM – 12:00 AM | Wednesday: 4:00 – 7:00 PM, 10:00 PM – 1:00 AM | Thursday: 4:00 – 7:00 PM, 10:00 PM – 1:00 AM | Friday: 4:00 – 7:00 PM | Saturday: Closed | Sunday: 10:00 PM – 12:00 AM",Monday: 11:00 AM – 12:00 AM | Tuesday: 11:00 AM – 12:00 AM | Wednesday: 11:00 AM – 1:00 AM | Thursday: 11:00 AM – 1:00 AM | Friday: 11:00 AM – 2:00 AM | Saturday: 10:00 AM – 1:00 AM | Sunday: 10:00 AM – 12:00 AM,4.2,7897,PRICE_LEVEL_MODERATE,Google Places API (Happy Hours),2026-04-21,32.7727419,-117.1314573,,,,,
La Sirena,"4286 University Ave, San Diego, CA 92105, USA",(619) 432-1213,,,Monday: 2:00 PM – 12:00 AM | Tuesday: 2:00 PM – 12:00 AM | Wednesday: 2:00 PM – 12:00 AM | Thursday: 2:00 PM – 12:00 AM | Friday: 2:00 PM – 12:00 AM | Saturday: 12:00 PM – 12:00 AM | Sunday: 12:00 PM – 12:00 AM,3.9,16,,Google Places API,2026-04-21,32.7498037,-117.102426,,,,,
Clem's Tap House,"4108 Adams Ave, San Diego, CA 92116, USA",(619) 255-4526,https://clemstaphouse.com/,,Monday: 11:00 AM – 10:00 PM | Tuesday: 11:00 AM – 10:00 PM | Wednesday: 11:00 AM – 10:00 PM | Thursday: 11:00 AM – 10:00 PM | Friday: 11:00 AM – 12:00 AM | Saturday: 11:00 AM – 12:00 AM | Sunday: 11:00 AM – 10:00 PM,4.7,326,PRICE_LEVEL_MODERATE,Google Places API,2026-04-21,32.7636299,-117.1071016,,,,,
Fairplay,"4026 30th St, San Diego, CA 92104, USA",(619) 269-3222,https://www.fairplaybar.com/,Monday: 2:00 – 5:00 PM | Tuesday: 2:00 – 5:00 PM | Wednesday: 2:00 – 5:00 PM | Thursday: 2:00 – 5:00 PM | Friday: 2:00 – 5:00 PM | Saturday: Closed | Sunday: Closed,Monday: 11:30 AM – 10:00 PM | Tuesday: 11:30 AM – 10:00 PM | Wednesday: 11:30 AM – 12:00 AM | Thursday: 11:30 AM – 12:00 AM | Friday: 11:30 AM – 12:00 AM | Saturday: 9:00 AM – 12:00 AM | Sunday: 8:00 AM – 10:00 PM,4.4,168,,Google Places API (Happy Hours),2026-04-21,32.7508756,-117.13035309999998,,,,,
Lobby Bar,"2233 El Cajon Blvd, San Diego, CA 92104, USA",(619) 269-2101,,,Monday: 11:00 AM – 11:00 PM | Tuesday: 11:00 AM – 11:00 PM | Wednesday: 11:00 AM – 11:00 PM | Thursday: 11:00 AM – 11:00 PM | Friday: 11:00 AM – 11:00 PM | Saturday: 11:00 AM – 11:00 PM | Sunday: 11:00 AM – 11:00 PM,4,11,,Google Places API,2026-04-21,32.754926399999995,-117.14067149999998,,,,,
Whistle Stop Bar,"2236 Fern St, San Diego, CA 92104, USA",(619) 284-6784,http://www.whistlestopbar.com/,Monday: 4:00 – 7:00 PM | Tuesday: 4:00 – 7:00 PM | Wednesday: 4:00 – 7:00 PM | Thursday: 4:00 – 7:00 PM | Friday: 4:00 – 7:00 PM | Saturday: 4:00 – 7:00 PM | Sunday: 4:00 – 7:00 PM,Monday: 2:00 PM – 2:00 AM | Tuesday: 2:00 PM – 2:00 AM | Wednesday: 2:00 PM – 2:00 AM | Thursday: 2:00 PM – 2:00 AM | Friday: 2:00 PM – 2:00 AM | Saturday: 2:00 PM – 2:00 AM | Sunday: 2:00 PM – 2:00 AM,4.4,698,PRICE_LEVEL_INEXPENSIVE,Google Places API (Happy Hours),2026-04-21,32.7293668,-117.1297497,,,,,
San Diego Eagle,"3040 N Park Way, San Diego, CA 92104, USA",(619) 295-8072,http://www.sandiegoeagle.com/,Monday: 4:00 – 8:00 PM | Tuesday: 4:00 – 8:00 PM | Wednesday: 4:00 – 8:00 PM | Thursday: 4:00 – 8:00 PM | Friday: 2:00 – 8:00 PM | Saturday: 2:00 – 8:00 PM | Sunday: 2:00 – 8:00 PM,Monday: 4:00 PM – 2:00 AM | Tuesday: 4:00 PM – 2:00 AM | Wednesday: 4:00 PM – 2:00 AM | Thursday: 4:00 PM – 2:00 AM | Friday: 2:00 PM – 2:00 AM | Saturday: 2:00 PM – 2:00 AM | Sunday: 2:00 PM – 2:00 AM,3.8,82,PRICE_LEVEL_INEXPENSIVE,Google Places API (Happy Hours),2026-04-21,32.7475976,-117.12872990000001,,,,,
Aero Club Bar,"3365 India St, San Diego, CA 92103, USA",(619) 297-7211,https://aeroclubbar.com/,Monday: 2:00 – 7:00 PM | Tuesday: 2:00 – 7:00 PM | Wednesday: 2:00 – 7:00 PM | Thursday: 2:00 – 7:00 PM | Friday: 2:00 – 7:00 PM | Saturday: 2:00 – 7:00 PM | Sunday: 2:00 – 7:00 PM,Monday: 2:00 PM – 2:00 AM | Tuesday: 2:00 PM – 2:00 AM | Wednesday: 2:00 PM – 2:00 AM | Thursday: 2:00 PM – 2:00 AM | Friday: 12:00 PM – 2:00 AM | Saturday: 12:00 PM – 2:00 AM | Sunday: 12:00 PM – 2:00 AM,4.7,1174,PRICE_LEVEL_INEXPENSIVE,Google Places API (Happy Hours),2026-04-21,32.7381483,-117.17646799999999,,,,,
Pecs Bar,"2046 University Ave, San Diego, CA 92104, USA",(619) 296-0889,http://www.pecsbar.com/,,Monday: 12:00 PM – 12:00 AM | Tuesday: 12:00 PM – 12:00 AM | Wednesday: 12:00 PM – 12:00 AM | Thursday: 12:00 PM – 12:00 AM | Friday: 12:00 PM – 2:00 AM | Saturday: 12:00 PM – 2:00 AM | Sunday: 12:00 PM – 12:00 AM,4.1,171,PRICE_LEVEL_INEXPENSIVE,Google Places API,2026-04-21,32.7486223,-117.14272559999999,,,,,
The Library Tavern,"7459 Mission Gorge Rd, San Diego, CA 92120, USA",(619) 583-5839,https://m.facebook.com/The-Library-Tavern-282811008422784/,Monday: 3:00 PM - 6:00 PM | Tuesday: 3:00 PM - 6:00 PM | Wednesday: 3:00 PM - 6:00 PM | Thursday: 3:00 PM - 6:00 PM | Friday: 4:00 PM - 7:00 PM | Saturday: Closed | Sunday: Closed,Monday: 2:00 PM – 1:00 AM | Tuesday: 2:00 PM – 1:00 AM | Wednesday: 2:00 PM – 1:00 AM | Thursday: 2:00 PM – 1:00 AM | Friday: 12:00 PM – 2:00 AM | Saturday: 12:00 PM – 2:00 AM | Sunday: 9:00 AM – 1:00 AM,4.4,295,PRICE_LEVEL_INEXPENSIVE,Website (AI parsed),2026-04-21,32.806706999999996,-117.07735900000002,,,,,
Camel's Bar and Grill,"10330 Friars Rd #106, San Diego, CA 92120, USA",(619) 281-1722,http://www.camelsbarandgrill.com/,,Monday: 11:00 AM – 10:00 PM | Tuesday: 11:00 AM – 11:00 PM | Wednesday: 11:00 AM – 2:00 AM | Thursday: 11:00 AM – 2:00 AM | Friday: 11:00 AM – 2:00 AM | Saturday: 10:00 AM – 2:00 AM | Sunday: 10:00 AM – 10:00 PM,4.3,443,PRICE_LEVEL_INEXPENSIVE,Google Places API,2026-04-21,32.7914634,-117.100748,,,,,
Channel 2 Sports Bar,"3232 Greyling Dr, San Diego, CA 92123, USA",(858) 430-6442,,,Monday: 12:00 PM – 2:00 AM | Tuesday: 12:00 PM – 2:00 AM | Wednesday: 12:00 PM – 2:00 AM | Thursday: 12:00 PM – 2:00 AM | Friday: 12:00 PM – 2:00 AM | Saturday: 12:00 PM – 2:00 AM | Sunday: 12:00 PM – 2:00 AM,4.2,166,PRICE_LEVEL_INEXPENSIVE,Google Places API,2026-04-21,32.8020035,-117.1405636,,,,,
Pal Joey's Cocktail Lounge,"5147 Waring Rd, San Diego, CA 92120, USA",(619) 582-6699,https://www.paljoeys.net/,Monday: 6:00 AM - 10:00 AM | Tuesday: 6:00 AM - 10:00 AM | Wednesday: 6:00 AM - 10:00 AM | Thursday: 6:00 AM - 10:00 AM | Friday: 6:00 AM - 10:00 AM | Saturday: 6:00 AM - 10:00 AM | Sunday: 6:00 AM - 10:00 AM,Monday: 6:00 AM – 2:00 AM | Tuesday: 6:00 AM – 2:00 AM | Wednesday: 6:00 AM – 2:00 AM | Thursday: 6:00 AM – 2:00 AM | Friday: 6:00 AM – 2:00 AM | Saturday: 6:00 AM – 2:00 AM | Sunday: 6:00 AM – 2:00 AM,4.3,537,PRICE_LEVEL_INEXPENSIVE,Website (AI parsed),2026-04-21,32.790896,-117.08109549999999,,,,,
CJ's Lounge,"222 W Washington St, San Diego, CA 92103, USA",(619) 296-2721,http://cjs-club.poi.place/,,Monday: 2:00 PM – 2:00 AM | Tuesday: 2:00 PM – 2:00 AM | Wednesday: 2:00 PM – 2:00 AM | Thursday: 2:00 PM – 2:00 AM | Friday: 11:00 AM – 2:00 AM | Saturday: 11:00 AM – 2:00 AM | Sunday: 11:00 AM – 2:00 AM,4.5,112,PRICE_LEVEL_INEXPENSIVE,Google Places API,2026-04-21,32.7500669,-117.165543,,,,,
Urban MO's Bar & Grill,"308 University Ave, San Diego, CA 92103, USA",(619) 491-0400,https://urbanmos.com/dinein/,Saturday: 2:00 PM - 7:00 PM | Sunday: 2:00 PM - 7:00 PM,Monday: 10:00 AM – 11:00 PM | Tuesday: 10:00 AM – 11:00 PM | Wednesday: 10:00 AM – 11:00 PM | Thursday: 10:00 AM – 11:00 PM | Friday: 10:00 AM – 1:00 AM | Saturday: 9:00 AM – 1:00 AM | Sunday: 9:00 AM – 11:00 PM,4.6,2606,PRICE_LEVEL_MODERATE,Website (AI parsed),2026-04-21,32.7483789,-117.1625679,,,,,
The BLVD Bar,"6949 El Cajon Blvd, San Diego, CA 92115, USA",(619) 464-9945,http://www.theblvdbarsd.com/,Monday: Closed | Tuesday: Closed | Wednesday: Closed | Thursday: Closed | Friday: Closed | Saturday: Closed | Sunday: Closed,Monday: 12:00 PM – 2:00 AM | Tuesday: 12:00 PM – 2:00 AM | Wednesday: 12:00 PM – 2:00 AM | Thursday: 12:00 PM – 2:00 AM | Friday: 12:00 PM – 2:00 AM | Saturday: 12:00 PM – 2:00 AM | Sunday: 12:00 PM – 2:00 AM,4.3,227,PRICE_LEVEL_INEXPENSIVE,Website (AI parsed),2026-04-21,32.7685089,-117.0480651,,,,,
Botanica Art & Cocktail Bar,"3139 University Ave, San Diego, CA 92104, USA",(619) 310-6370,http://botanicabarsd.com/,Monday: Closed | Tuesday: 5:00 – 9:30 PM | Wednesday: 5:00 – 7:00 PM | Thursday: 5:00 – 7:00 PM | Friday: Closed | Saturday: Closed | Sunday: Closed,Monday: Closed | Tuesday: 5:00 – 10:00 PM | Wednesday: 5:00 – 10:00 PM | Thursday: 5:00 – 10:00 PM | Friday: 5:00 PM – 12:00 AM | Saturday: 5:00 PM – 12:00 AM | Sunday: 5:00 – 10:00 PM,4.4,167,,Google Places API (Happy Hours),2026-04-21,32.7482847,-117.1263374,,,,,
619 Spirits North Park,"3015 Lincoln Ave, San Diego, CA 92104, USA",(619) 269-2757,https://www.619spirits.com/,Monday: 3:00 – 6:00 PM | Tuesday: 3:00 – 6:00 PM | Wednesday: 3:00 – 6:00 PM | Thursday: 3:00 – 6:00 PM | Friday: 3:00 – 6:00 PM | Saturday: 3:00 – 6:00 PM | Sunday: 3:00 – 6:00 PM,Monday: 12:00 – 10:00 PM | Tuesday: 12:00 – 10:00 PM | Wednesday: 12:00 – 10:00 PM | Thursday: 12:00 – 10:00 PM | Friday: 12:00 PM – 1:00 AM | Saturday: 11:00 AM – 1:00 AM | Sunday: 11:00 AM – 9:00 PM,4.4,295,PRICE_LEVEL_MODERATE,Google Places API (Happy Hours),2026-04-21,32.750150999999995,-117.12978980000001,,,,,
Good News Bar,"3821 Park Blvd, San Diego, CA 92103, USA",,http://www.goodnewssd.com/,Monday: Closed | Tuesday: 4:00 PM - 7:00 PM | Wednesday: 4:00 PM - 7:00 PM | Thursday: 4:00 PM - 7:00 PM | Friday: 4:00 PM - 7:00 PM | Saturday: Closed | Sunday: Closed,"Monday: Closed | Tuesday: 8:00 AM – 2:00 PM, 4:00 – 10:00 PM | Wednesday: 8:00 AM – 2:00 PM, 4:00 – 10:00 PM | Thursday: 8:00 AM – 2:00 PM, 4:00 – 10:00 PM | Friday: 8:00 AM – 2:00 PM, 4:00 – 11:00 PM | Saturday: 8:00 AM – 2:00 PM, 4:00 – 11:00 PM | Sunday: 8:00 AM – 2:00 PM, 4:00 – 10:00 PM",4.8,96,,Website (AI parsed),2026-04-21,32.7478658,-117.1460757,,,,,
Belching Beaver Brewery North Park,"4223 30th St, San Diego, CA 92104, USA",(619) 282-1062,https://northpark.belchingbeaver.com/,Monday: 3:00 PM - 9:00 PM | Tuesday: 3:00 PM - 10:00 PM | Wednesday: 3:00 PM - 10:00 PM | Thursday: 3:00 PM - 10:00 PM | Friday: 12:00 PM - 12:00 AM | Saturday: 12:00 PM - 12:00 AM | Sunday: 12:00 PM - 9:00 PM,Monday: 3:00 – 9:00 PM | Tuesday: 3:00 – 10:00 PM | Wednesday: 3:00 – 10:00 PM | Thursday: 3:00 – 10:00 PM | Friday: 12:00 PM – 12:00 AM | Saturday: 12:00 PM – 12:00 AM | Sunday: 12:00 – 9:00 PM,4.6,474,PRICE_LEVEL_INEXPENSIVE,Website (AI parsed),2026-04-21,32.7546222,-117.13005249999998,,,,,
AIR CONDITIONED Lounge,"4673 30th St, San Diego, CA 92116, USA",(619) 501-9831,https://airconditionedlounge.com/,Monday: Closed | Tuesday: Closed | Wednesday: 5:00 PM - 8:00 PM | Thursday: 5:00 PM - 8:00 PM | Friday: 5:00 PM - 8:00 PM | Saturday: 5:00 PM - 8:00 PM | Sunday: 5:00 PM - 8:00 PM,Monday: Closed | Tuesday: Closed | Wednesday: 5:00 PM – 2:00 AM | Thursday: 5:00 PM – 2:00 AM | Friday: 5:00 PM – 2:00 AM | Saturday: 5:00 PM – 2:00 AM | Sunday: 3:00 – 8:00 PM,4.5,210,PRICE_LEVEL_MODERATE,Website (AI parsed),2026-04-21,32.7623879,-117.13006739999999,,,,,
Chili's Grill & Bar,"4252 Camino Del Rio N, San Diego, CA 92108, USA",(619) 280-7996,https://www.chilis.com/locations/us/california/san-diego/mission-valley?utm_source=google&utm_medium=local&utm_campaign=Chilis,Monday: 3:00 – 6:00 PM | Tuesday: 3:00 – 6:00 PM | Wednesday: 3:00 – 6:00 PM | Thursday: 3:00 – 6:00 PM | Friday: 3:00 – 6:00 PM | Saturday: Closed | Sunday: Closed,Monday: 11:00 AM – 10:00 PM | Tuesday: 11:00 AM – 10:00 PM | Wednesday: 11:00 AM – 10:00 PM | Thursday: 11:00 AM – 10:00 PM | Friday: 11:00 AM – 11:00 PM | Saturday: 11:00 AM – 11:00 PM | Sunday: 11:00 AM – 10:00 PM,4.2,2155,PRICE_LEVEL_MODERATE,Google Places API (Happy Hours),2026-04-21,32.779699,-117.103315,,,,,
True North Tavern,"3815 30th St, San Diego, CA 92104, USA",(619) 291-3815,http://truenorthtavern.com/,Monday: 4:00 – 10:00 PM | Tuesday: Closed | Wednesday: Closed | Thursday: 4:00 – 11:00 PM | Friday: 11:00 AM – 6:00 PM | Saturday: 9:00 AM – 6:00 PM | Sunday: 9:00 AM – 10:00 PM,Monday: 4:00 – 10:00 PM | Tuesday: Closed | Wednesday: Closed | Thursday: 4:00 – 11:00 PM | Friday: 11:00 AM – 2:00 AM | Saturday: 9:00 AM – 2:00 AM | Sunday: 9:00 AM – 10:00 PM,4,850,PRICE_LEVEL_MODERATE,Google Places API (Happy Hours),2026-04-21,32.7477155,-117.12993540000001,,,,,
The Glampisphere @ The Air Conditioned Lounge,"4673 30th St Patio G, San Diego, CA 92116, USA",(619) 501-9831,http://www.glampisphere.space/,,Monday: 12:00 AM – 10:00 PM | Tuesday: 10:00 AM – 10:00 PM | Wednesday: 10:00 AM – 10:00 PM | Thursday: 10:00 AM – 10:00 PM | Friday: 10:00 AM – 10:00 PM | Saturday: 10:00 AM – 10:00 PM | Sunday: 10:00 AM – 12:00 AM,4.9,14,,Google Places API,2026-04-21,32.7623663,-117.1300141,,,,,
The Duke Cocktails & Grub,"6519 Mission Gorge Rd, San Diego, CA 92120, USA",(619) 283-0831,https://www.thedukesd.com/,Monday: Closed | Tuesday: Closed | Wednesday: Closed | Thursday: Closed | Friday: Closed | Saturday: Closed | Sunday: Closed,Monday: 11:00 AM – 10:00 PM | Tuesday: 11:00 AM – 10:00 PM | Wednesday: 11:00 AM – 10:00 PM | Thursday: 11:00 AM – 10:00 PM | Friday: 11:00 AM – 11:00 PM | Saturday: 11:00 AM – 11:00 PM | Sunday: 11:00 AM – 9:00 PM,4.6,50,,Website (AI parsed),2026-04-21,32.7916463,-117.096577,,,,,
Nómade Tapas and Records,"3027 Adams Ave, San Diego, CA 92116, USA",,https://www.nomadetapasandrecords.com/,Monday: Closed | Tuesday: Closed | Wednesday: Closed | Thursday: Closed | Friday: Closed | Saturday: Closed | Sunday: Closed,"Monday: 7:30 AM – 2:00 PM, 5:00 – 10:00 PM | Tuesday: 7:30 AM – 2:00 PM, 5:00 – 10:00 PM | Wednesday: 7:30 AM – 2:00 PM, 5:00 – 10:00 PM | Thursday: 7:30 AM – 2:00 PM, 5:00 – 10:00 PM | Friday: 7:30 AM – 2:00 PM, 5:00 – 10:00 PM | Saturday: 8:30 AM – 12:00 AM | Sunday: 8:30 AM – 9:30 PM",4.2,108,,Website (AI parsed),2026-04-21,32.7626926,-117.12941669999998,,,,,
Yard House,"1640 Camino Del Rio N Space 157, San Diego, CA 92108, USA",(619) 574-0468,https://www.yardhouse.com/locations/ca/san-diego/san-diego-mission-valley-mall/8363?cmpid=br:yh_ag:ie_ch:loc_ca:YHGMB_sn:gmb_gt:san-diego-ca-8363_pl:locurl_rd:1059,"Monday: 3:00 – 6:00 PM, 10:00 – 11:00 PM | Tuesday: 3:00 – 6:00 PM, 10:00 – 11:00 PM | Wednesday: 3:00 – 6:00 PM, 10:00 – 11:00 PM | Thursday: 3:00 – 6:00 PM, 10:00 – 11:00 PM | Friday: 3:00 – 6:00 PM | Saturday: Closed | Sunday: 10:00 – 11:00 PM",Monday: 11:00 AM – 11:00 PM | Tuesday: 11:00 AM – 11:00 PM | Wednesday: 11:00 AM – 11:00 PM | Thursday: 11:00 AM – 11:00 PM | Friday: 11:00 AM – 11:30 PM | Saturday: 11:00 AM – 11:30 PM | Sunday: 11:00 AM – 11:00 PM,4.5,3700,PRICE_LEVEL_MODERATE,Google Places API (Happy Hours),2026-04-21,32.7679319,-117.1487525,,,,,
False Idol,"675 W Beech St, San Diego, CA 92101, USA",,http://falseidoltiki.com/,Monday: 5:00 – 6:00 PM | Tuesday: 5:00 – 6:00 PM | Wednesday: 5:00 – 6:00 PM | Thursday: 5:00 – 6:00 PM | Friday: 5:00 – 6:00 PM | Saturday: Closed | Sunday: Closed,Monday: 5:00 PM – 1:00 AM | Tuesday: 5:00 PM – 1:00 AM | Wednesday: 5:00 PM – 1:00 AM | Thursday: 5:00 PM – 1:00 AM | Friday: 5:00 PM – 2:00 AM | Saturday: 5:00 PM – 2:00 AM | Sunday: 5:00 PM – 1:00 AM,4.7,1510,PRICE_LEVEL_EXPENSIVE,Google Places API (Happy Hours),2026-04-21,32.7207772,-117.16893079999998,,,,,
Uptown Tavern,"1236 University Ave, San Diego, CA 92103, USA",(619) 241-2710,https://uptowntavernsd.com/,Monday: Closed | Tuesday: 4:00 – 6:00 PM | Wednesday: 4:00 – 6:00 PM | Thursday: 4:00 – 6:00 PM | Friday: 4:00 – 6:00 PM | Saturday: 3:00 – 6:00 PM | Sunday: Closed,Monday: Closed | Tuesday: 4:00 – 11:00 PM | Wednesday: 4:00 – 11:00 PM | Thursday: 4:00 PM – 12:00 AM | Friday: 4:00 PM – 12:00 AM | Saturday: 12:00 PM – 12:00 AM | Sunday: 11:00 AM – 11:00 PM,4.4,755,PRICE_LEVEL_MODERATE,Google Places API (Happy Hours),2026-04-21,32.7487245,-117.15259539999998,,,,,
insideOUT,"1642 University Ave, San Diego, CA 92103, USA",(619) 888-8623,http://insideoutsd.com/,Monday: Closed | Tuesday: 4pm - 6pm | Wednesday: 4pm - 6pm | Thursday: 4pm - 6pm | Friday: 4pm - 6pm | Saturday: Closed | Sunday: Closed,Monday: Closed | Tuesday: 4:00 – 10:30 PM | Wednesday: 4:00 – 10:30 PM | Thursday: 4:00 – 10:30 PM | Friday: 4:00 PM – 12:00 AM | Saturday: 10:00 AM – 12:00 AM | Sunday: 10:00 AM – 5:00 PM,4.5,1673,PRICE_LEVEL_MODERATE,Website (AI parsed),2026-04-21,32.7485748,-117.14863740000001,,,,,
La Puerta,"4020 Goldfinch St, San Diego, CA 92103, USA",(619) 876-5200,https://lapuertasd.com/?utm_source=Business-Listings,Monday: 3:00 – 5:00 PM | Tuesday: 3:00 – 5:00 PM | Wednesday: 3:00 – 5:00 PM | Thursday: 3:00 – 5:00 PM | Friday: 3:00 – 5:00 PM | Saturday: 3:00 – 5:00 PM | Sunday: 3:00 – 5:00 PM,Monday: 11:00 AM – 11:00 PM | Tuesday: 11:00 AM – 11:00 PM | Wednesday: 11:00 AM – 11:00 PM | Thursday: 11:00 AM – 11:00 PM | Friday: 11:00 AM – 11:00 PM | Saturday: 9:00 AM – 11:00 PM | Sunday: 9:00 AM – 11:00 PM,4.6,749,PRICE_LEVEL_MODERATE,Google Places API (Happy Hours),2026-04-21,32.7503533,-117.17165139999999,,,,,
Fernside,"1946 Fern St, San Diego, CA 92102, USA",(619) 255-9591,https://www.fernsidebar.com/,Monday: 4:00 – 6:00 PM | Tuesday: 4:00 – 6:00 PM | Wednesday: 4:00 – 6:00 PM | Thursday: 4:00 – 6:00 PM | Friday: 3:00 – 6:00 PM | Saturday: Closed | Sunday: Closed,Monday: 4:00 – 11:00 PM | Tuesday: 4:00 – 11:00 PM | Wednesday: 4:00 – 11:00 PM | Thursday: 4:00 – 11:00 PM | Friday: 3:00 PM – 12:00 AM | Saturday: 11:00 AM – 12:00 AM | Sunday: 11:00 AM – 11:00 PM,4.6,414,PRICE_LEVEL_MODERATE,Google Places API (Happy Hours),2026-04-21,32.726365799999996,-117.12945819999999,,,,,
TapRoom Beer Company,"2000 El Cajon Blvd, San Diego, CA 92104, USA",(619) 539-7738,http://www.taproombeerco.com/,,Monday: 11:00 AM – 11:00 PM | Tuesday: 11:00 AM – 11:00 PM | Wednesday: 11:00 AM – 11:00 PM | Thursday: 11:00 AM – 11:00 PM | Friday: 11:00 AM – 11:00 PM | Saturday: 10:00 AM – 11:00 PM | Sunday: 10:00 AM – 11:00 PM,4.6,711,PRICE_LEVEL_MODERATE,Google Places API,2026-04-21,32.755516799999995,-117.14356629999999,,,,,
Mabel's Gone Fishing,"3770 30th St, San Diego, CA 92104, USA",(619) 228-9851,https://www.mabelsgonefishing.com/,Monday: 4:00 – 5:00 PM | Tuesday: 4:00 – 5:00 PM | Wednesday: 4:00 – 5:00 PM | Thursday: 4:00 – 5:00 PM | Friday: 4:00 – 5:00 PM | Saturday: 4:00 – 5:00 PM | Sunday: Closed,Monday: 4:00 – 11:00 PM | Tuesday: 4:00 – 11:00 PM | Wednesday: 4:00 – 11:00 PM | Thursday: 4:00 – 11:00 PM | Friday: 4:00 – 11:00 PM | Saturday: 4:00 – 11:00 PM | Sunday: Closed,4.5,515,PRICE_LEVEL_EXPENSIVE,Google Places API (Happy Hours),2026-04-21,32.7467898,-117.130235,,,,,
Cantina Mayahuel,"2934 Adams Ave, San Diego, CA 92116, USA",,https://cantinamayahuelsd.com/,,Monday: Closed | Tuesday: 12:00 – 10:00 PM | Wednesday: 12:00 – 10:00 PM | Thursday: 12:00 – 10:00 PM | Friday: 12:00 – 10:00 PM | Saturday: 12:00 – 10:00 PM | Sunday: 12:00 – 10:00 PM,4.6,1132,PRICE_LEVEL_MODERATE,Google Places API,2026-04-21,32.763072199999996,-117.130601,,,,,
The Seventh House Speakeasy,"2835 University Ave, San Diego, CA 92104, USA",(619) 310-5614,https://www.seventhhousesandiego.com/,,Monday: Closed | Tuesday: Closed | Wednesday: 6:00 PM – 12:00 AM | Thursday: 6:00 PM – 12:00 AM | Friday: 6:00 PM – 12:00 AM | Saturday: 6:00 PM – 12:00 AM | Sunday: Closed,4.1,233,,Google Places API,2026-04-21,32.7481009,-117.13269260000001,,,,,
West Coast Tavern,"2895 University Ave, San Diego, CA 92104, USA",(619) 543-0113,https://www.westcoasttavern.com/,,Monday: Closed | Tuesday: Closed | Wednesday: Closed | Thursday: 5:00 – 11:00 PM | Friday: 5:00 – 11:00 PM | Saturday: 10:00 AM – 11:00 PM | Sunday: 10:00 AM – 9:00 PM,4.2,527,PRICE_LEVEL_MODERATE,Google Places API,2026-04-21,32.7482495,-117.13139980000001,,,,,
Shakespeare Pub,"3701 India St, San Diego, CA 92103, USA",(619) 299-0230,http://www.shakespearepub.com/,Monday: 3:00 PM - 6:00 PM | Tuesday: 3:00 PM - 6:00 PM | Wednesday: 3:00 PM - 6:00 PM | Thursday: 3:00 PM - 6:00 PM | Friday: 3:00 PM - 6:00 PM | Saturday: Closed | Sunday: Closed,Monday: 10:30 AM – 11:00 PM | Tuesday: 10:30 AM – 11:00 PM | Wednesday: 10:30 AM – 11:00 PM | Thursday: 10:30 AM – 11:00 PM | Friday: 10:30 AM – 12:00 AM | Saturday: 8:00 AM – 12:00 AM | Sunday: 8:00 AM – 10:00 PM,4.6,2320,PRICE_LEVEL_MODERATE,Website (AI parsed),2026-04-21,32.7426168,-117.1804507,,,,,
Eureka!,"5140 College Ave Suite 111, San Diego, CA 92115, USA",(619) 220-2400,http://eurekarestaurantgroup.com/blog/locations/san-diego-state/,"Monday: 3:00 – 6:00 PM, 9:00 PM – 12:00 AM | Tuesday: 3:00 – 6:00 PM, 9:00 PM – 12:00 AM | Wednesday: 3:00 – 6:00 PM, 9:00 PM – 12:00 AM | Thursday: 3:00 – 6:00 PM, 9:00 PM – 12:00 AM | Friday: 3:00 – 6:00 PM, 9:00 PM – 12:00 AM | Saturday: 3:00 – 6:00 PM, 9:00 PM – 12:00 AM | Sunday: 3:00 – 6:00 PM, 9:00 PM – 12:00 AM",Monday: 11:00 AM – 12:00 AM | Tuesday: 11:00 AM – 12:00 AM | Wednesday: 11:00 AM – 12:00 AM | Thursday: 11:00 AM – 12:00 AM | Friday: 11:00 AM – 12:00 AM | Saturday: 11:00 AM – 12:00 AM | Sunday: 11:00 AM – 12:00 AM,4.1,846,PRICE_LEVEL_MODERATE,Google Places API (Happy Hours),2026-04-21,32.772463099999996,-117.07025349999999,,,,,
Taste & Thirst,"715 Fourth Ave, San Diego, CA 92101, USA",(619) 955-5995,http://tasteandthirst.com/,Monday: 11:00 AM – 12:00 AM | Tuesday: 1:00 PM – 12:00 AM | Wednesday: 1:00 PM – 12:00 AM | Thursday: 1:00 PM – 12:00 AM | Friday: 11:00 AM – 12:00 AM | Saturday: 11:00 AM – 12:00 AM | Sunday: 9:30 AM – 12:00 AM,Monday: 1:00 PM – 1:00 AM | Tuesday: 1:00 PM – 1:00 AM | Wednesday: 1:00 PM – 1:00 AM | Thursday: 1:00 PM – 2:00 AM | Friday: 11:00 AM – 2:00 AM | Saturday: 11:00 AM – 2:00 AM | Sunday: 10:30 AM – 2:00 AM,4.5,920,PRICE_LEVEL_INEXPENSIVE,Google Places API (Happy Hours),2026-04-21,32.7128699,-117.16093450000001,,,,,
Happy Does Bar,"340 Fifth Ave, San Diego, CA 92101, USA",(619) 877-1880,https://www.happydoesbar.com/,Monday: Closed | Tuesday: Closed | Wednesday: Closed | Thursday: 3:00 PM - 6:00 PM | Friday: 3:00 PM - 6:00 PM | Saturday: Closed | Sunday: Closed,Monday: Closed | Tuesday: Closed | Wednesday: Closed | Thursday: 3:00 PM – 2:00 AM | Friday: 3:00 PM – 2:00 AM | Saturday: 11:00 AM – 2:00 AM | Sunday: 11:00 AM – 10:00 PM,4.2,276,PRICE_LEVEL_MODERATE,Website (AI parsed),2026-04-21,32.7089181,-117.16037159999999,,,,,
Encontro North Park,"3001 University Ave #3001, San Diego, CA 92104, USA",(619) 291-1220,http://www.encontronorthpark.com/,Monday: 2:30 – 5:00 PM | Tuesday: 2:30 – 5:00 PM | Wednesday: 2:30 – 5:00 PM | Thursday: 2:30 – 5:00 PM | Friday: 2:30 – 5:00 PM | Saturday: Closed | Sunday: Closed,Monday: 11:00 AM – 9:00 PM | Tuesday: 11:00 AM – 9:00 PM | Wednesday: 11:00 AM – 9:00 PM | Thursday: 11:00 AM – 9:00 PM | Friday: 11:00 AM – 10:00 PM | Saturday: 10:00 AM – 10:00 PM | Sunday: 10:00 AM – 9:00 PM,4.2,684,PRICE_LEVEL_MODERATE,Google Places API (Happy Hours),2026-04-21,32.7482039,-117.1299095,,,,,
Crazee Burger,"3993 30th St, San Diego, CA 92104, USA",(619) 282-6044,http://crazeeburger.com/,,Monday: 9:00 AM – 10:00 PM | Tuesday: 9:00 AM – 10:00 PM | Wednesday: 9:00 AM – 10:00 PM | Thursday: 9:00 AM – 10:00 PM | Friday: 9:00 AM – 11:00 PM | Saturday: 9:00 AM – 11:00 PM | Sunday: 9:00 AM – 10:00 PM,4.6,2223,PRICE_LEVEL_MODERATE,Google Places API,2026-04-21,32.750175299999995,-117.1299264,,,,,
Hopnonymous Brewing - Normal Heights,"3514 Adams Ave, San Diego, CA 92116, USA",(619) 847-4628,https://hopnonymousbrewing.com/locations/adams-ave/,Monday: 3:00 PM - 9:00 PM | Tuesday: 1:00 PM - 9:00 PM | Wednesday: 1:00 PM - 9:00 PM | Thursday: 1:00 PM - 9:00 PM | Friday: 12:00 PM - 10:00 PM | Saturday: 12:00 PM - 10:00 PM | Sunday: 12:00 PM - 7:00 PM,Monday: 3:00 – 9:00 PM | Tuesday: 1:00 – 9:00 PM | Wednesday: 1:00 – 9:00 PM | Thursday: 1:00 – 9:00 PM | Friday: 12:00 – 10:00 PM | Saturday: 12:00 – 10:00 PM | Sunday: 12:00 – 7:00 PM,4.8,34,,Website (AI parsed),2026-04-21,32.7635164,-117.11693860000001,,,,,
BJ's Restaurant & Brewhouse,"1370 Frazee Rd, San Diego, CA 92108, USA",(619) 814-6350,https://www.bjsrestaurants.com/locations/ca/mission-valley,"Monday: 3:00 – 7:00 PM, 9:00 PM – 12:00 AM | Tuesday: 3:00 – 7:00 PM, 9:00 PM – 12:00 AM | Wednesday: 3:00 – 7:00 PM, 9:00 PM – 12:00 AM | Thursday: 3:00 – 7:00 PM, 9:00 PM – 12:00 AM | Friday: 3:00 – 7:00 PM | Saturday: Closed | Sunday: 9:00 PM – 12:00 AM",Monday: 11:00 AM – 12:00 AM | Tuesday: 11:00 AM – 12:00 AM | Wednesday: 11:00 AM – 12:00 AM | Thursday: 11:00 AM – 12:00 AM | Friday: 11:00 AM – 12:00 AM | Saturday: 11:00 AM – 12:00 AM | Sunday: 11:00 AM – 12:00 AM,4.3,2593,PRICE_LEVEL_MODERATE,Google Places API (Happy Hours),2026-04-21,32.7720153,-117.15721930000001,,,,,
The Hills Pub,"8758 La Mesa Blvd, La Mesa, CA 91942, USA",(619) 741-7166,http://www.thehillspub.com/,"Monday: 2:00 – 5:00 PM, 9:00 PM – 12:00 AM | Tuesday: 2:00 – 5:00 PM, 9:00 PM – 12:00 AM | Wednesday: 2:00 – 5:00 PM, 9:00 PM – 12:00 AM | Thursday: 2:00 – 5:00 PM, 9:00 PM – 12:00 AM | Friday: 2:00 – 5:00 PM | Saturday: Closed | Sunday: 9:00 PM – 12:00 AM",Monday: 11:00 AM – 12:00 AM | Tuesday: 11:00 AM – 12:00 AM | Wednesday: 11:00 AM – 12:00 AM | Thursday: 11:00 AM – 12:00 AM | Friday: 11:00 AM – 2:00 AM | Saturday: 8:00 AM – 2:00 AM | Sunday: 8:00 AM – 12:00 AM,4.6,1935,PRICE_LEVEL_MODERATE,Google Places API (Happy Hours),2026-04-21,32.7705926,-117.0088964,,,,,
The Pub,"2415 Morena Blvd, San Diego, CA 92110, USA",(619) 276-2100,http://www.thepubinbaypark.com/,"Monday: Closed | Tuesday: Closed | Wednesday: 3:30 – 6:00 PM, 8:00 – 10:00 PM | Thursday: 3:30 – 6:00 PM, 8:00 – 10:00 PM | Friday: 1:00 – 6:00 PM | Saturday: 1:00 – 6:00 PM | Sunday: 9:30 AM – 3:00 PM",Monday: Closed | Tuesday: Closed | Wednesday: 3:30 – 10:00 PM | Thursday: 3:30 – 10:00 PM | Friday: 1:00 – 11:00 PM | Saturday: 1:00 – 11:00 PM | Sunday: 9:30 AM – 3:30 PM,4.7,636,PRICE_LEVEL_MODERATE,Google Places API (Happy Hours),2026-04-21,32.7876093,-117.2059335,,,,,
Stout Public House,"1125 Sixth Ave, San Diego, CA 92101, USA",(619) 702-7933,http://www.stoutsd.com/,Monday: 4:00 – 8:00 PM | Tuesday: 4:00 – 8:00 PM | Wednesday: 4:00 – 8:00 PM | Thursday: 4:00 – 8:00 PM | Friday: 4:00 – 8:00 PM | Saturday: 11:30 AM – 7:00 PM | Sunday: 11:30 AM – 7:00 PM,Monday: 4:00 PM – 1:00 AM | Tuesday: 4:00 PM – 1:00 AM | Wednesday: 11:00 AM – 2:00 AM | Thursday: 11:00 AM – 2:00 AM | Friday: 11:00 AM – 2:00 AM | Saturday: 4:00 PM – 2:00 AM | Sunday: 10:00 AM – 2:00 AM,4.5,727,PRICE_LEVEL_MODERATE,Google Places API (Happy Hours),2026-04-21,32.7171503,-117.15910969999999,,,,,
The Field Irish Pub,"544 Fifth Ave, San Diego, CA 92101, USA",(619) 232-9840,https://thefield.com/,,Monday: 12:00 PM – 12:00 AM | Tuesday: 12:00 PM – 12:00 AM | Wednesday: 12:00 PM – 12:00 AM | Thursday: 12:00 PM – 12:00 AM | Friday: 12:00 PM – 2:00 AM | Saturday: 9:00 AM – 2:00 AM | Sunday: 9:00 AM – 12:00 AM,4.6,2276,PRICE_LEVEL_MODERATE,Google Places API,2026-04-21,32.7110611,-117.16042069999997,,,,,
Waterfront Bar & Grill,"2044 Kettner Blvd, San Diego, CA 92101, USA",(619) 232-9656,http://waterfrontbarandgrill.com/,Monday: 3:00 – 6:00 PM | Tuesday: 3:00 – 6:00 PM | Wednesday: 3:00 – 6:00 PM | Thursday: 3:00 – 6:00 PM | Friday: 3:00 – 6:00 PM | Saturday: Closed | Sunday: Closed,Monday: 8:00 AM – 2:00 AM | Tuesday: 8:00 AM – 2:00 AM | Wednesday: 8:00 AM – 2:00 AM | Thursday: 8:00 AM – 2:00 AM | Friday: 8:00 AM – 2:00 AM | Saturday: 8:00 AM – 2:00 AM | Sunday: 8:00 AM – 2:00 AM,4.5,2657,PRICE_LEVEL_INEXPENSIVE,Google Places API (Happy Hours),2026-04-21,32.7256314,-117.17025020000001,,,,,
Princess Pub & Grille,"1665 India St, San Diego, CA 92101, USA",(619) 702-3021,http://www.princesspubandgrill.com/,Monday: 4:00 – 7:00 PM | Tuesday: 4:00 – 7:00 PM | Wednesday: 4:00 – 7:00 PM | Thursday: 4:00 – 7:00 PM | Friday: 4:00 – 7:00 PM | Saturday: Closed | Sunday: Closed,Monday: 11:00 AM – 1:00 AM | Tuesday: 11:00 AM – 1:00 AM | Wednesday: 11:00 AM – 1:00 AM | Thursday: 11:00 AM – 1:00 AM | Friday: 11:00 AM – 1:00 AM | Saturday: 9:00 AM – 1:00 AM | Sunday: 9:00 AM – 1:00 AM,4.1,1303,PRICE_LEVEL_MODERATE,Google Places API (Happy Hours),2026-04-21,32.7228561,-117.16815559999998,,,,,
Bock,"1521 30th St, San Diego, CA 92102, USA",(619) 377-0034,https://www.bockbar.com/,Monday: 3:00 – 5:00 PM | Tuesday: 3:00 – 5:00 PM | Wednesday: 3:00 – 5:00 PM | Thursday: 3:00 – 5:00 PM | Friday: 3:00 – 5:00 PM | Saturday: Closed | Sunday: Closed,Monday: 3:00 – 11:00 PM | Tuesday: 3:00 – 11:00 PM | Wednesday: 3:00 – 11:00 PM | Thursday: 3:00 – 11:00 PM | Friday: 12:00 PM – 12:00 AM | Saturday: 12:00 PM – 12:00 AM | Sunday: 11:00 AM – 11:00 PM,4.8,210,,Google Places API (Happy Hours),2026-04-21,32.7217754,-117.1299911,,,,,
La Puerta,"560 Fourth Ave, San Diego, CA 92101, USA",(619) 696-3466,https://lapuertasd.com/?utm_source=Business-Listings,Monday: 3:00 – 5:00 PM | Tuesday: 3:00 – 5:00 PM | Wednesday: 3:00 – 5:00 PM | Thursday: 3:00 – 5:00 PM | Friday: 3:00 – 5:00 PM | Saturday: 3:00 – 5:00 PM | Sunday: 3:00 – 5:00 PM,Monday: 11:00 AM – 12:00 AM | Tuesday: 11:00 AM – 12:00 AM | Wednesday: 11:00 AM – 12:00 AM | Thursday: 11:00 AM – 12:00 AM | Friday: 11:00 AM – 1:00 AM | Saturday: 10:00 AM – 1:00 AM | Sunday: 10:00 AM – 12:00 AM,4.5,5141,PRICE_LEVEL_MODERATE,Google Places API (Happy Hours),2026-04-21,32.711216199999996,-117.1612498,,,,,
Harbor Town Pub,"1125 Rosecrans St, San Diego, CA 92106, USA",(619) 224-1321,https://www.harbortownpub.com/,Monday: 3:00 PM - 6:00 PM | Tuesday: 3:00 PM - 6:00 PM | Wednesday: 3:00 PM - 6:00 PM | Thursday: 3:00 PM - 6:00 PM | Friday: 4:00 PM - 7:00 PM | Saturday: Closed | Sunday: Closed,Monday: 11:00 AM – 12:00 AM | Tuesday: 11:00 AM – 12:00 AM | Wednesday: 11:00 AM – 12:00 AM | Thursday: 11:00 AM – 12:00 AM | Friday: 11:00 AM – 1:00 AM | Saturday: 8:00 AM – 1:00 AM | Sunday: 8:00 AM – 12:00 AM,4.6,1457,PRICE_LEVEL_MODERATE,Website (AI parsed),2026-04-21,32.7215747,-117.2313491,,,,,
The Regal Beagle,"3659 India St, San Diego, CA 92103, USA",(619) 297-2337,http://www.regalbeaglesd.com/,Monday: 3:00 – 6:00 PM | Tuesday: 3:00 – 6:00 PM | Wednesday: 3:00 – 6:00 PM | Thursday: 3:00 – 6:00 PM | Friday: 3:00 – 6:00 PM | Saturday: Closed | Sunday: Closed,Monday: 11:30 AM – 11:00 PM | Tuesday: 11:30 AM – 11:00 PM | Wednesday: 11:30 AM – 11:00 PM | Thursday: 11:30 AM – 11:00 PM | Friday: 11:30 AM – 11:00 PM | Saturday: 11:30 AM – 11:00 PM | Sunday: 11:30 AM – 11:00 PM,4.6,575,PRICE_LEVEL_INEXPENSIVE,Google Places API (Happy Hours),2026-04-21,32.741883699999995,-117.17963590000001,,,,,
Clem’s Station - Clem’s Coffee Co.,"4715 Monroe Ave, San Diego, CA 92115, USA",(619) 380-2052,http://clemsstation.com/,,Monday: 11:00 AM – 10:00 PM | Tuesday: 11:00 AM – 10:00 PM | Wednesday: 11:00 AM – 10:00 PM | Thursday: 11:00 AM – 10:00 PM | Friday: 7:00 AM – 11:00 PM | Saturday: 7:00 AM – 11:00 PM | Sunday: 7:00 AM – 10:00 PM,4.8,197,PRICE_LEVEL_MODERATE,Google Places API,2026-04-21,32.7587555,-117.09261119999998,,,,,
Neighborhood,"777 G St, San Diego, CA 92101, USA",(619) 446-0002,http://neighborhoodsd.com/,Monday: 3:00 PM - 6:00 PM | Tuesday: 3:00 PM - 6:00 PM | Wednesday: 3:00 PM - 6:00 PM | Thursday: 3:00 PM - 6:00 PM | Friday: 4:00 PM - 7:00 PM | Saturday: Closed | Sunday: Closed,Monday: 4:00 PM – 2:00 AM | Tuesday: 4:00 PM – 2:00 AM | Wednesday: 4:00 PM – 2:00 AM | Thursday: 4:00 PM – 2:00 AM | Friday: 4:00 PM – 2:00 AM | Saturday: 4:00 PM – 2:00 AM | Sunday: 4:00 PM – 2:00 AM,4.5,884,PRICE_LEVEL_MODERATE,Website (AI parsed),2026-04-21,32.712406,-117.157584,,,,,
Blarney Stone Pub,"502 Fifth Ave, San Diego, CA 92101, USA",(619) 233-8519,http://blarney-stone-pub.poi.place/,Monday: 3:00 PM - 6:00 PM | Tuesday: 3:00 PM - 6:00 PM | Wednesday: 3:00 PM - 6:00 PM | Thursday: 3:00 PM - 6:00 PM | Friday: 4:00 PM - 7:00 PM | Saturday: Closed | Sunday: Closed,Monday: 6:00 PM – 2:00 AM | Tuesday: 6:00 PM – 2:00 AM | Wednesday: 6:00 PM – 2:00 AM | Thursday: 6:00 PM – 2:00 AM | Friday: 4:00 PM – 2:00 AM | Saturday: 4:00 PM – 2:00 AM | Sunday: 6:00 PM – 2:00 AM,3.8,288,PRICE_LEVEL_MODERATE,Website (AI parsed),2026-04-21,32.7106253,-117.1602755,,,,,
Crab Pub,"6011 El Cajon Blvd, San Diego, CA 92115, USA",(619) 229-6679,https://www.crabpub.com/,,Monday: 12:00 – 10:00 PM | Tuesday: 12:00 – 10:00 PM | Wednesday: 12:00 – 10:00 PM | Thursday: 12:00 – 10:00 PM | Friday: 12:00 – 10:00 PM | Saturday: 12:00 – 10:00 PM | Sunday: 12:00 – 10:00 PM,4.3,850,PRICE_LEVEL_MODERATE,Google Places API,2026-04-21,32.7606505,-117.06800129999999,,,,,
Original 40 Brewing Company,"3117 University Ave, San Diego, CA 92104, USA",(619) 255-7380,http://www.original40brewing.com/,,Monday: 12:00 – 10:00 PM | Tuesday: 12:00 – 10:00 PM | Wednesday: 12:00 – 10:00 PM | Thursday: 12:00 PM – 12:00 AM | Friday: 12:00 PM – 12:00 AM | Saturday: 11:30 AM – 12:00 AM | Sunday: 11:30 AM – 10:00 PM,4.7,361,,Google Places API,2026-04-21,32.7483021,-117.12661320000001,,,,,
Mondays,"805 16th St, San Diego, CA 92101, USA",(925) 642-0026,,,Monday: 12:00 PM – 12:00 AM | Tuesday: 12:00 PM – 12:00 AM | Wednesday: 12:00 PM – 12:00 AM | Thursday: 12:00 PM – 12:00 AM | Friday: 12:00 PM – 2:00 AM | Saturday: 12:00 PM – 2:00 AM | Sunday: 12:00 PM – 12:00 AM,4.7,12,,Google Places API,2026-04-21,32.7138466,-117.1492925,,,,,
Common Theory,"4805 Convoy St, San Diego, CA 92111, USA",(619) 780-6689,https://commontheorysd.com/,Monday: 3:00 – 6:00 PM | Tuesday: 3:00 – 6:00 PM | Wednesday: 3:00 – 6:00 PM | Thursday: 3:00 – 6:00 PM | Friday: 3:00 – 6:00 PM | Saturday: 3:00 – 6:00 PM | Sunday: 3:00 – 6:00 PM,Monday: 11:30 AM – 11:00 PM | Tuesday: 11:30 AM – 11:00 PM | Wednesday: 11:30 AM – 11:00 PM | Thursday: 11:30 AM – 11:00 PM | Friday: 11:30 AM – 2:00 AM | Saturday: 11:30 AM – 2:00 AM | Sunday: 11:30 AM – 11:00 PM,4.4,1673,PRICE_LEVEL_MODERATE,Google Places API (Happy Hours),2026-04-21,32.8294036,-117.1527594,,,,,
Wonderland Ocean Pub,"5083 Santa Monica Ave Suite 2B, San Diego, CA 92107, USA",(619) 255-3358,http://wonderlandob.com/,Monday: 3:00 PM - 6:00 PM | Tuesday: 3:00 PM - 6:00 PM | Wednesday: 3:00 PM - 6:00 PM | Thursday: 3:00 PM - 6:00 PM | Friday: 4:00 PM - 7:00 PM | Saturday: Closed | Sunday: Closed,Monday: 11:30 AM – 11:00 PM | Tuesday: 11:30 AM – 11:00 PM | Wednesday: 11:30 AM – 11:00 PM | Thursday: 11:30 AM – 11:00 PM | Friday: 11:00 AM – 11:00 PM | Saturday: 10:00 AM – 11:00 PM | Sunday: 10:00 AM – 11:00 PM,4.5,2579,PRICE_LEVEL_MODERATE,Website (AI parsed),2026-04-21,32.7483812,-117.25192380000001,,,,,
Bullpen,"8199 Clairemont Mesa Blvd, San Diego, CA 92111, USA",(858) 503-6786,http://www.bullpenbar.com/,Monday: 2:00 – 5:00 PM | Tuesday: 2:00 – 5:00 PM | Wednesday: 2:00 – 5:00 PM | Thursday: 2:00 – 5:00 PM | Friday: 2:00 – 5:00 PM | Saturday: 2:00 – 5:00 PM | Sunday: 2:00 – 5:00 PM,Monday: 11:00 AM – 12:00 AM | Tuesday: 11:00 AM – 12:00 AM | Wednesday: 11:00 AM – 12:00 AM | Thursday: 11:00 AM – 1:30 AM | Friday: 11:00 AM – 2:00 AM | Saturday: 11:00 AM – 2:00 AM | Sunday: 10:00 AM – 12:00 AM,4.4,1139,PRICE_LEVEL_INEXPENSIVE,Google Places API (Happy Hours),2026-04-21,32.8323847,-117.1481063,,,,,
PB Shore Club,"4343 Ocean Blvd, San Diego, CA 92109, USA",(858) 272-7873,https://www.pbshoreclub.com/,,Monday: 11:00 AM – 2:00 AM | Tuesday: 11:00 AM – 2:00 AM | Wednesday: 11:00 AM – 2:00 AM | Thursday: 11:00 AM – 2:00 AM | Friday: 10:00 AM – 2:00 AM | Saturday: 9:00 AM – 2:00 AM | Sunday: 9:00 AM – 12:00 AM,4.2,2989,PRICE_LEVEL_MODERATE,Google Places API,2026-04-21,32.7942171,-117.2558081,,,,,
McP's Irish Pub,"1107 Orange Ave, Coronado, CA 92118, USA",(619) 435-5280,http://mcpspub.com/,Monday: 4:00 – 6:00 PM | Tuesday: 4:00 – 6:00 PM | Wednesday: 4:00 – 6:00 PM | Thursday: 4:00 – 6:00 PM | Friday: 4:00 – 6:00 PM | Saturday: Closed | Sunday: Closed,Monday: 11:30 AM – 12:00 AM | Tuesday: 11:30 AM – 12:00 AM | Wednesday: 11:30 AM – 12:00 AM | Thursday: 11:30 AM – 12:00 AM | Friday: 11:30 AM – 12:00 AM | Saturday: 11:00 AM – 12:00 AM | Sunday: 11:00 AM – 12:00 AM,4.4,2398,PRICE_LEVEL_MODERATE,Google Places API (Happy Hours),2026-04-21,32.684418,-117.17881399999997,,,,,
Gaslamp Tavern,"868 Fifth Ave, San Diego, CA 92101, USA",,http://gaslamptavern.com/,Monday: Closed | Tuesday: Closed | Wednesday: Closed | Thursday: Closed | Friday: Closed | Saturday: Closed | Sunday: Closed,Monday: 11:00 AM – 12:00 AM | Tuesday: 11:00 AM – 12:00 AM | Wednesday: 11:00 AM – 12:00 AM | Thursday: 11:00 AM – 12:00 AM | Friday: 11:00 AM – 2:00 AM | Saturday: 11:00 AM – 2:00 AM | Sunday: 11:00 AM – 12:00 AM,4.3,984,PRICE_LEVEL_MODERATE,Website (AI parsed),2026-04-21,32.714501399999996,-117.16032339999998,,,,,
San Diego Brewing Company,"10450 Friars Rd, San Diego, CA 92120, USA",(619) 284-2739,http://sandiegobrewing.com/,Monday: 11:00 AM – 10:00 PM | Tuesday: 3:00 – 5:00 PM | Wednesday: 3:00 – 5:00 PM | Thursday: 3:00 – 5:00 PM | Friday: 3:00 – 5:00 PM | Saturday: Closed | Sunday: Closed,Monday: 11:00 AM – 10:00 PM | Tuesday: 11:00 AM – 10:00 PM | Wednesday: 11:00 AM – 10:00 PM | Thursday: 11:00 AM – 10:00 PM | Friday: 11:00 AM – 11:00 PM | Saturday: 11:00 AM – 11:00 PM | Sunday: 11:00 AM – 10:00 PM,4.3,651,PRICE_LEVEL_MODERATE,Google Places API (Happy Hours),2026-04-21,32.7922743,-117.098967,,,,,
Fall Brewing Company,"4542 30th St, San Diego, CA 92116, USA",(619) 501-0903,https://www.fallbrewingcompany.com/,,Monday: 11:00 AM – 10:00 PM | Tuesday: 11:00 AM – 10:00 PM | Wednesday: 11:00 AM – 10:00 PM | Thursday: 11:00 AM – 10:00 PM | Friday: 11:00 AM – 12:00 AM | Saturday: 11:00 AM – 12:00 AM | Sunday: 11:00 AM – 10:00 PM,4.6,510,,Google Places API,2026-04-21,32.760023,-117.1304411,,,,,
The Whiskey House,"420 Third Ave, San Diego, CA 92101, USA",(619) 546-6289,http://www.thewhiskeyhousesd.com/,Monday: 4:00 – 7:00 PM | Tuesday: 4:00 – 7:00 PM | Wednesday: 4:00 – 7:00 PM | Thursday: 4:00 – 7:00 PM | Friday: 4:00 – 7:00 PM | Saturday: 4:00 – 7:00 PM | Sunday: 4:00 – 7:00 PM,Monday: 4:00 – 11:00 PM | Tuesday: 4:00 – 11:00 PM | Wednesday: 4:00 – 11:00 PM | Thursday: 4:00 PM – 12:00 AM | Friday: 9:00 AM – 1:30 AM | Saturday: 9:00 AM – 1:30 AM | Sunday: 9:00 AM – 11:00 PM,4.5,1435,PRICE_LEVEL_MODERATE,Google Places API (Happy Hours),2026-04-21,32.7097222,-117.16224170000001,,,,,
O'Brien's,"4646 Convoy St, San Diego, CA 92111, USA",(858) 715-1745,https://obrienspub.net/,,Monday: 11:00 AM – 10:00 PM | Tuesday: 11:00 AM – 10:00 PM | Wednesday: 11:00 AM – 10:00 PM | Thursday: 11:00 AM – 10:00 PM | Friday: 11:00 AM – 11:00 PM | Saturday: 11:00 AM – 11:00 PM | Sunday: 11:00 AM – 7:00 PM,4.6,887,PRICE_LEVEL_MODERATE,Google Places API,2026-04-21,32.8252617,-117.15588329999999,,,,,
Patricks Gaslamp Pub,"428 F St, San Diego, CA 92101, USA",(619) 230-5323,http://patricksgaslamppub.com/,,Monday: 4:00 PM – 2:00 AM | Tuesday: 4:00 PM – 2:00 AM | Wednesday: 4:00 PM – 2:00 AM | Thursday: 4:00 PM – 2:00 AM | Friday: 12:00 PM – 2:00 AM | Saturday: 12:00 PM – 2:00 AM | Sunday: 12:00 PM – 2:00 AM,4.4,643,PRICE_LEVEL_MODERATE,Google Places API,2026-04-21,32.713733999999995,-117.16056400000001,,,,,
Gravity Heights Mission Valley,"525 Camino De La Reina, San Diego, CA 92108, USA",(619) 539-7833,https://www.gravityheights.com/,,Monday: 11:30 AM – 8:00 PM | Tuesday: 11:30 AM – 8:00 PM | Wednesday: 11:30 AM – 8:00 PM | Thursday: 11:30 AM – 8:00 PM | Friday: 11:30 AM – 8:30 PM | Saturday: 10:00 AM – 8:30 PM | Sunday: 10:00 AM – 8:00 PM,4.6,156,PRICE_LEVEL_MODERATE,Google Places API,2026-04-21,32.766246599999995,-117.1601168,,,,,
Knotty Barrel,"844 Market St, San Diego, CA 92101, USA",(619) 269-7156,https://www.knottybarrel.com/,Monday: 4:00 – 6:00 PM | Tuesday: 4:00 – 6:00 PM | Wednesday: 4:00 – 6:00 PM | Thursday: 4:00 – 6:00 PM | Friday: 4:00 – 6:00 PM | Saturday: Closed | Sunday: Closed,Monday: 11:30 AM – 10:00 PM | Tuesday: 11:30 AM – 10:00 PM | Wednesday: 11:30 AM – 10:00 PM | Thursday: 11:30 AM – 10:30 PM | Friday: 11:30 AM – 12:00 AM | Saturday: 11:00 AM – 12:00 AM | Sunday: 11:00 AM – 10:00 PM,4.5,1183,PRICE_LEVEL_MODERATE,Google Places API (Happy Hours),2026-04-21,32.7116635,-117.15669299999999,,,,,
North Park Beer Company - Bankers Hill,"3095 Fifth Ave, San Diego, CA 92103, USA",(619) 230-5179,http://www.northparkbeerco.com/,,Monday: 11:00 AM – 10:00 PM | Tuesday: 11:00 AM – 10:00 PM | Wednesday: 11:00 AM – 10:00 PM | Thursday: 11:00 AM – 10:00 PM | Friday: 11:00 AM – 10:00 PM | Saturday: 11:00 AM – 10:00 PM | Sunday: 11:00 AM – 10:00 PM,4.7,320,PRICE_LEVEL_MODERATE,Google Places API,2026-04-21,32.737558199999995,-117.16021680000001,,,,,
Novo Brazil Brewing Mission Valley,"1640 Camino Del Rio N suite 341, San Diego, CA 92108, USA",(619) 310-5387,https://www.novobrew.com/,Monday: 12:00 – 5:30 PM | Tuesday: 12:00 – 5:30 PM | Wednesday: 12:00 – 5:30 PM | Thursday: 12:00 – 5:30 PM | Friday: 12:00 – 5:30 PM | Saturday: Closed | Sunday: Closed,Monday: 12:00 – 10:00 PM | Tuesday: 12:00 – 10:00 PM | Wednesday: 12:00 – 10:00 PM | Thursday: 12:00 – 10:00 PM | Friday: 11:30 AM – 11:00 PM | Saturday: 11:30 AM – 11:00 PM | Sunday: 10:00 AM – 8:00 PM,4.3,289,PRICE_LEVEL_MODERATE,Google Places API (Happy Hours),2026-04-21,32.768409999999996,-117.14682699999999,,,,,
Pretzels & Pints,"3812 Ray St, San Diego, CA 92104, USA",(619) 230-5353,https://www.pretzelsandpints.com/,Monday: 12:00 PM - 6:00 PM | Tuesday: 12:00 PM - 6:00 PM | Wednesday: 12:00 PM - 6:00 PM | Thursday: 12:00 PM - 6:00 PM | Friday: 12:00 PM - 6:00 PM | Saturday: Closed | Sunday: Closed,Monday: 12:00 – 10:00 PM | Tuesday: 12:00 – 10:00 PM | Wednesday: 12:00 – 10:00 PM | Thursday: 12:00 – 10:00 PM | Friday: 12:00 – 10:00 PM | Saturday: 11:00 AM – 10:00 PM | Sunday: 11:00 AM – 10:00 PM,4.7,635,PRICE_LEVEL_INEXPENSIVE,Website (AI parsed),2026-04-21,32.7476724,-117.12957759999999,,,,,
American Junkie,"628 Fifth Ave, San Diego, CA 92101, USA",(619) 255-1981,https://www.americanjunkiesd.com/,Monday: Closed | Tuesday: 5:00 PM - 2:00 AM | Wednesday: 5:00 PM - 2:00 AM | Thursday: 5:00 PM - 2:00 AM | Friday: 5:00 PM - 2:00 AM | Saturday: 1:00 PM - 2:00 AM | Sunday: 10:00 AM - 10:00 PM,Monday: Closed | Tuesday: 5:00 PM – 2:00 AM | Wednesday: 5:00 PM – 2:00 AM | Thursday: 5:00 PM – 2:00 AM | Friday: 5:00 PM – 2:00 AM | Saturday: 1:00 PM – 2:00 AM | Sunday: 1:00 – 10:00 PM,4.1,1289,PRICE_LEVEL_MODERATE,Website (AI parsed),2026-04-21,32.7121255,-117.16037070000002,,,,,
North Park Beer Company,"3038 University Ave, San Diego, CA 92104, USA",(619) 255-2994,http://www.northparkbeerco.com/,,Monday: 12:00 – 10:00 PM | Tuesday: 12:00 – 10:00 PM | Wednesday: 12:00 – 10:00 PM | Thursday: 12:00 – 10:00 PM | Friday: 12:00 PM – 12:00 AM | Saturday: 12:00 PM – 12:00 AM | Sunday: 12:00 – 10:00 PM,4.5,607,PRICE_LEVEL_MODERATE,Google Places API,2026-04-21,32.748646,-117.12914889999999,,,,,
Kettner Exchange,"2001 Kettner Blvd, San Diego, CA 92101, USA",(619) 255-2001,http://www.kettnerexchange.com/,,Monday: 5:00 PM – 12:00 AM | Tuesday: 5:00 PM – 12:00 AM | Wednesday: 5:00 PM – 12:00 AM | Thursday: 5:00 PM – 12:00 AM | Friday: 5:00 PM – 1:00 AM | Saturday: 5:00 PM – 1:00 AM | Sunday: 11:00 AM – 12:00 AM,4.5,2260,PRICE_LEVEL_EXPENSIVE,Google Places API,2026-04-21,32.7253645,-117.1697595,,,,,
Babaz Grill Pizza & Subs,"4672 University Ave STE D, San Diego, CA 92105, USA",(619) 600-0080,https://www.babazgrillpizzasubs.com/,,Monday: 11:00 AM – 4:00 AM | Tuesday: 11:00 AM – 4:00 AM | Wednesday: 11:00 AM – 4:00 AM | Thursday: 11:00 AM – 4:00 AM | Friday: 11:00 AM – 4:00 AM | Saturday: 11:00 AM – 4:00 AM | Sunday: 11:00 AM – 4:00 AM,4.3,740,PRICE_LEVEL_MODERATE,Google Places API,2026-04-21,32.7496922,-117.09372300000001,,,,,
The Mesa Bar & Grill,"6164 El Cajon Blvd, San Diego, CA 92115, USA",(619) 597-3461,http://www.mesabargrill.com/,Monday: 3:00 PM - 6:00 PM | Tuesday: 3:00 PM - 6:00 PM | Wednesday: 3:00 PM - 6:00 PM | Thursday: 3:00 PM - 6:00 PM | Friday: 4:00 PM - 7:00 PM | Saturday: Closed | Sunday: Closed,Monday: 11:00 AM – 12:00 AM | Tuesday: 11:00 AM – 12:00 AM | Wednesday: 11:00 AM – 12:00 AM | Thursday: 11:00 AM – 2:00 AM | Friday: 11:00 AM – 2:00 AM | Saturday: 11:00 AM – 2:00 AM | Sunday: 11:00 AM – 12:00 AM,4.6,36,,Website (AI parsed),2026-04-21,32.763107399999996,-117.06485850000001,,,,,
Gossip Grill,"1220 University Ave, San Diego, CA 92103, USA",(619) 260-8023,http://gossipgrill.com/,Monday: 2:00 – 6:00 PM | Tuesday: 2:00 – 6:00 PM | Wednesday: 2:00 – 6:00 PM | Thursday: 2:00 – 6:00 PM | Friday: 2:00 – 6:00 PM | Saturday: Closed | Sunday: Closed,Monday: Closed | Tuesday: 2:00 PM – 12:00 AM | Wednesday: 2:00 PM – 12:00 AM | Thursday: 2:00 PM – 12:00 AM | Friday: 2:00 PM – 2:00 AM | Saturday: 11:00 AM – 2:00 AM | Sunday: 11:00 AM – 10:00 PM,4.5,2013,PRICE_LEVEL_MODERATE,Google Places API (Happy Hours),2026-04-21,32.7488029,-117.15307620000002,,,,,
California Fish Grill,"1530 Camino De La Reina, San Diego, CA 92108, USA",(619) 541-8723,https://www.cafishgrill.com/,,Monday: 11:00 AM – 9:00 PM | Tuesday: 11:00 AM – 9:00 PM | Wednesday: 11:00 AM – 9:00 PM | Thursday: 11:00 AM – 9:30 PM | Friday: 11:00 AM – 9:30 PM | Saturday: 11:00 AM – 9:30 PM | Sunday: 11:00 AM – 9:00 PM,4.5,1793,PRICE_LEVEL_MODERATE,Google Places API,2026-04-21,32.7704782,-117.15099590000001,,,,,
Habit Burger & Grill,"845 Camino De La Reina, San Diego, CA 92108, USA",(619) 299-9913,https://order.habitburger.com/store/46/category,,Monday: 10:00 AM – 11:00 PM | Tuesday: 10:00 AM – 11:00 PM | Wednesday: 10:00 AM – 11:00 PM | Thursday: 10:00 AM – 11:00 PM | Friday: 10:00 AM – 11:00 PM | Saturday: 10:00 AM – 11:00 PM | Sunday: 10:00 AM – 11:00 PM,4.4,1456,PRICE_LEVEL_INEXPENSIVE,Google Places API,2026-04-21,32.7667816,-117.1568288,,,,,
Turf Supper Club,"1116 25th St, San Diego, CA 92102, USA",(619) 234-6363,http://turfsupperclub.com/,Monday: Closed | Tuesday: Closed | Wednesday: Closed | Thursday: Closed | Friday: 12:00 – 5:00 PM | Saturday: 12:00 – 5:00 PM | Sunday: 12:00 – 5:00 PM,Monday: 5:00 PM – 2:00 AM | Tuesday: 5:00 PM – 2:00 AM | Wednesday: 5:00 PM – 2:00 AM | Thursday: 5:00 PM – 2:00 AM | Friday: 5:00 PM – 2:00 AM | Saturday: 5:00 PM – 2:00 AM | Sunday: 5:00 PM – 2:00 AM,4.6,1049,PRICE_LEVEL_MODERATE,Google Places API (Happy Hours),2026-04-21,32.7173006,-117.1406071,,,,,
Habit Burger & Grill,"6075 Aztec Circle Dr, San Diego, CA 92182, USA",(619) 582-1365,https://order.habitburger.com/store/99/category,,Monday: 10:00 AM – 11:00 PM | Tuesday: 10:00 AM – 11:00 PM | Wednesday: 10:00 AM – 11:00 PM | Thursday: 10:00 AM – 11:00 PM | Friday: 10:00 AM – 11:00 PM | Saturday: 10:00 – 11:00 AM | Sunday: 10:00 AM – 11:00 PM,4.3,350,PRICE_LEVEL_INEXPENSIVE,Google Places API,2026-04-21,32.7737032,-117.07005229999999,,,,,
EL TORO GRILL TAQUERIA,"4491 El Cajon Blvd, San Diego, CA 92115, USA",(619) 528-8574,https://smorefood.com/order-online/el-toro-grill-taqueria-san-diego-92115-1xxr7j85?utm_source=gmb&utm_medium=website,,Monday: Closed | Tuesday: 10:00 AM – 10:00 PM | Wednesday: 10:00 AM – 10:00 PM | Thursday: 10:00 AM – 10:00 PM | Friday: 10:00 AM – 12:00 AM | Saturday: 10:00 AM – 12:00 AM | Sunday: 10:00 AM – 5:00 PM,4.6,188,PRICE_LEVEL_MODERATE,Google Places API,2026-04-21,32.755130799999996,-117.09773070000001,,,,,
Wagyu Shawarma Grill Mission Valley,"10467 San Diego Mission Rd, San Diego, CA 92108, USA",(619) 642-0773,http://wagyushawarmagrill.com/,,Monday: 10:30 AM – 9:00 PM | Tuesday: 10:30 AM – 9:00 PM | Wednesday: 10:30 AM – 9:00 PM | Thursday: 10:30 AM – 9:00 PM | Friday: 10:30 AM – 9:00 PM | Saturday: 10:30 AM – 9:00 PM | Sunday: 10:30 AM – 9:00 PM,4.7,406,,Google Places API,2026-04-21,32.784454,-117.11133129999997,,,,,
Wild Thyme Bar & Grill,"5841 El Cajon Blvd, San Diego, CA 92115, USA",(619) 764-5057,https://wildthymesd.com/,,Monday: 11:00 AM – 1:00 AM | Tuesday: 11:00 AM – 1:00 AM | Wednesday: 11:00 AM – 1:00 AM | Thursday: 11:00 AM – 1:00 AM | Friday: 11:00 AM – 1:00 AM | Saturday: 11:00 AM – 1:00 AM | Sunday: 1:00 PM – 1:00 AM,4.6,182,PRICE_LEVEL_INEXPENSIVE,Google Places API,2026-04-21,32.7591001,-117.07127210000002,,,,,
Applebee's Grill + Bar,"Vista Balboa Center, 7677 Balboa Ave, San Diego, CA 92111, USA",(858) 569-4590,https://restaurants.applebees.com/en-us/ca/san-diego/7677-balboa-avenue-79043?utm_source=google&utm_medium=organic&utm_campaign=google_my_business&utm_term=79043&utm_content=website,Monday: 3:00 PM - 6:00 PM | Tuesday: 3:00 PM - 6:00 PM | Wednesday: 3:00 PM - 6:00 PM | Thursday: 3:00 PM - 6:00 PM | Friday: 3:00 PM - 6:00 PM | Saturday: 9:00 PM - Close | Sunday: 9:00 PM - Close,Monday: 11:00 AM – 12:00 AM | Tuesday: 11:00 AM – 12:00 AM | Wednesday: 11:00 AM – 12:00 AM | Thursday: 11:00 AM – 12:00 AM | Friday: 11:00 AM – 12:00 AM | Saturday: 11:00 AM – 12:00 AM | Sunday: 11:00 AM – 12:00 AM,4,1588,PRICE_LEVEL_MODERATE,Website (AI parsed),2026-04-21,32.8213455,-117.15883269999999,,,,,
Chipotle Mexican Grill,"1025 Camino De La Reina, San Diego, CA 92108, USA",(619) 491-0481,https://locations.chipotle.com/ca/san-diego/1025-camino-de-la-reina?utm_source=google&utm_medium=yext&utm_campaign=yext_listings?restaurant=1141,,Monday: 10:00 AM – 11:00 PM | Tuesday: 10:00 AM – 11:00 PM | Wednesday: 10:00 AM – 11:00 PM | Thursday: 10:00 AM – 11:00 PM | Friday: 10:00 AM – 11:00 PM | Saturday: 10:00 AM – 11:00 PM | Sunday: 10:00 AM – 11:00 PM,3.6,1095,PRICE_LEVEL_INEXPENSIVE,Google Places API,2026-04-21,32.767984,-117.15325139999999,,,,,
Havana Grill,"1652 Camino Del Rio N, San Diego, CA 92108, USA",(619) 915-5699,https://havanagrillrestaurants.com/havanagrill-cp3e9d?utm_source=google,,Monday: 11:00 AM – 9:00 PM | Tuesday: 11:00 AM – 9:00 PM | Wednesday: 11:00 AM – 9:00 PM | Thursday: 11:00 AM – 9:00 PM | Friday: 11:00 AM – 9:00 PM | Saturday: 11:00 AM – 9:00 PM | Sunday: 11:00 AM – 8:00 PM,4.3,464,PRICE_LEVEL_MODERATE,Google Places API,2026-04-21,32.7700282,-117.14672879999999,,,,,
Offshore Tavern & Grill,"2253 Morena Blvd, San Diego, CA 92110, USA",(619) 276-2253,http://www.offshoretavern.com/,Monday: 3:00 – 6:00 PM | Tuesday: 3:00 – 6:00 PM | Wednesday: 3:00 – 6:00 PM | Thursday: 3:00 – 6:00 PM | Friday: 3:00 – 6:00 PM | Saturday: Closed | Sunday: Closed,Monday: 11:00 AM – 11:00 PM | Tuesday: 11:00 AM – 11:30 PM | Wednesday: 11:00 AM – 11:30 PM | Thursday: 11:00 AM – 11:30 PM | Friday: 11:00 AM – 11:30 PM | Saturday: 7:00 AM – 11:30 PM | Sunday: 11:00 AM – 11:00 PM,4.5,873,PRICE_LEVEL_MODERATE,Google Places API (Happy Hours),2026-04-21,32.785801,-117.20614699999999,,,,,
Darband Persian Grill,"1450 Kettner Blvd, San Diego, CA 92101, USA",(619) 230-1001,https://5thavenuegrill.com/,Monday: 3:00 PM - 6:00 PM | Tuesday: 3:00 PM - 6:00 PM | Wednesday: 3:00 PM - 6:00 PM | Thursday: 3:00 PM - 6:00 PM | Friday: 4:00 PM - 7:00 PM | Saturday: Closed | Sunday: Closed,Monday: 11:00 AM – 12:00 AM | Tuesday: 11:00 AM – 12:00 AM | Wednesday: 11:00 AM – 12:00 AM | Thursday: 11:00 AM – 12:00 AM | Friday: 11:00 AM – 1:00 AM | Saturday: 11:00 AM – 1:00 AM | Sunday: 11:00 AM – 1:00 AM,4.2,866,PRICE_LEVEL_MODERATE,Website (AI parsed),2026-04-21,32.720466,-117.16936220000001,,,,,
Panini Kabob Grill - Mission Valley,"891 Camino De La Reina, San Diego, CA 92108, USA",(619) 299-9220,https://paninikabobgrill.com/locations/mission-valley/,,Monday: 10:00 AM – 9:00 PM | Tuesday: 10:00 AM – 9:00 PM | Wednesday: 10:00 AM – 9:00 PM | Thursday: 10:00 AM – 9:00 PM | Friday: 10:00 AM – 9:00 PM | Saturday: 10:00 AM – 9:00 PM | Sunday: 10:00 AM – 9:00 PM,4.2,634,PRICE_LEVEL_MODERATE,Google Places API,2026-04-21,32.7672818,-117.15590970000001,,,,,
Sydney's Grill,"2920 Zoo Dr, San Diego, CA 92101, USA",(760) 747-8702,http://www.sandiegozoo.org/,,Monday: 10:30 AM – 6:00 PM | Tuesday: 10:30 AM – 6:00 PM | Wednesday: 10:30 AM – 6:00 PM | Thursday: 10:30 AM – 6:00 PM | Friday: 10:30 AM – 6:00 PM | Saturday: 10:00 AM – 6:00 PM | Sunday: 10:00 AM – 6:00 PM,2.8,73,,Google Places API,2026-04-21,32.7373863,-117.1497061,,,,,
Luna Grill Mission Valley,"2245 Fenton Pkwy Suite 105, San Diego, CA 92108, USA",(619) 516-5862,https://order.lunagrill.com/?y_source=1_MTQ0NDgwOTgtNzE1LWxvY2F0aW9uLndlYnNpdGU%3D,Monday: 3:00 PM - 6:00 PM | Tuesday: 3:00 PM - 6:00 PM | Wednesday: 3:00 PM - 6:00 PM | Thursday: 3:00 PM - 6:00 PM | Friday: 4:00 PM - 7:00 PM | Saturday: Closed | Sunday: Closed,Monday: 10:30 AM – 9:00 PM | Tuesday: 10:30 AM – 9:00 PM | Wednesday: 10:30 AM – 9:00 PM | Thursday: 10:30 AM – 9:00 PM | Friday: 10:30 AM – 9:00 PM | Saturday: 10:30 AM – 9:00 PM | Sunday: 10:30 AM – 9:00 PM,4.6,1370,PRICE_LEVEL_MODERATE,Website (AI parsed),2026-04-21,32.7799166,-117.12927089999998,,,,,
Picante mexican grill,"6334 El Cajon Blvd, San Diego, CA 92115, USA",(619) 253-8511,https://www.picantetaqueriaca.com/,,Monday: 10:00 AM – 3:30 AM | Tuesday: 10:00 AM – 3:30 AM | Wednesday: 10:00 AM – 3:30 AM | Thursday: 10:00 AM – 3:30 AM | Friday: 10:00 AM – 3:30 AM | Saturday: 10:00 AM – 3:30 AM | Sunday: 10:00 AM – 3:30 AM,3.9,20,PRICE_LEVEL_MODERATE,Google Places API,2026-04-21,32.76432630000001,-117.06235269999999,,,,,
Habit Burger & Grill,"3455 Sports Arena Blvd #104, San Diego, CA 92110, USA",(619) 224-1026,https://order.habitburger.com/store/73/category,,Monday: 10:00 AM – 11:00 PM | Tuesday: 10:00 AM – 11:00 PM | Wednesday: 10:00 AM – 11:00 PM | Thursday: 10:00 AM – 11:00 PM | Friday: 10:00 AM – 12:00 AM | Saturday: 10:00 AM – 12:00 AM | Sunday: 10:00 AM – 11:00 PM,4.4,1394,PRICE_LEVEL_INEXPENSIVE,Google Places API,2026-04-21,32.7528485,-117.21010919999998,,,,,
Paradise Lounge & Grill - San Diego's Best Sports Bar,"2732 Midway Dr, San Diego, CA 92110, USA",(619) 225-8110,https://paradiseloungesd.com/,Monday: 3:00 PM - 7:00 PM | Tuesday: 3:00 PM - 7:00 PM | Wednesday: 3:00 PM - 7:00 PM | Thursday: 3:00 PM - 7:00 PM | Friday: 3:00 PM - 7:00 PM | Saturday: Closed | Sunday: Closed,Monday: 8:00 AM – 2:00 AM | Tuesday: 8:00 AM – 2:00 AM | Wednesday: 8:00 AM – 2:00 AM | Thursday: 8:00 AM – 2:00 AM | Friday: 8:00 AM – 2:00 AM | Saturday: 8:00 AM – 2:00 AM | Sunday: 8:00 AM – 2:00 AM,4.5,687,PRICE_LEVEL_INEXPENSIVE,Website (AI parsed),2026-04-21,32.7480812,-117.2026824,,,,,
Grill chicken Linda vista,"2434 Ulric St, San Diego, CA 92111, USA",(858) 430-7589,,,Monday: Closed | Tuesday: Closed | Wednesday: Closed | Thursday: Closed | Friday: 10:00 AM – 5:00 PM | Saturday: 10:00 AM – 5:00 PM | Sunday: 10:00 AM – 5:00 PM,5,10,,Google Places API,2026-04-21,32.787137099999995,-117.1715823,,,,,
